{"type":"FeatureCollection","features":[{"type":"Feature","geometry":{"type":"Point","coordinates":[9.8996,47.08445]},"properties":{"id":"n13246380745","name":"-","country":"Austria","countryCode":"AT","region":null,"locality":null,"website":null,"badge":"Climbing spot","stat":"Sport climbing","tags":["Sport"]}},{"type":"Feature","geometry":{"type":"Point","coordinates":[9.65562,47.3437]},"properties":{"id":"n10592193791","name":"?","country":"Austria","countryCode":"AT","region":null,"locality":null,"website":null,"badge":"Climbing spot","stat":"Sport climbing","tags":["Sport"]}},{"type":"Feature","geometry":{"type":"Point","coordinates":[9.65553,47.34367]},"properties":{"id":"n10592277206","name":"?","country":"Austria","countryCode":"AT","region":null,"locality":null,"website":null,"badge":"Climbing spot","stat":"Sport climbing","tags":["Sport"]}},{"type":"Feature","geometry":{"type":"Point","coordinates":[9.8398,47.14586]},"properties":{"id":"n13100841188","name":"?","country":"Austria","countryCode":"AT","region":null,"locality":null,"website":null,"badge":"Climbing spot","stat":"Sport climbing","tags":["Sport"]}},{"type":"Feature","geometry":{"type":"Point","coordinates":[10.04583,46.97417]},"properties":{"id":"n13115230041","name":"?","country":"Austria","countryCode":"AT","region":null,"locality":null,"website":null,"badge":"Climbing spot","stat":"Sport climbing","tags":["Sport"]}},{"type":"Feature","geometry":{"type":"Point","coordinates":[9.65567,47.34371]},"properties":{"id":"n13140391124","name":"?","country":"Austria","countryCode":"AT","region":null,"locality":null,"website":null,"badge":"Climbing spot","stat":"Sport climbing","tags":["Sport"]}},{"type":"Feature","geometry":{"type":"Point","coordinates":[9.65572,47.34372]},"properties":{"id":"n13140391125","name":"?","country":"Austria","countryCode":"AT","region":null,"locality":null,"website":null,"badge":"Climbing spot","stat":"Sport climbing","tags":["Sport"]}},{"type":"Feature","geometry":{"type":"Point","coordinates":[9.65578,47.34375]},"properties":{"id":"n13140391126","name":"?","country":"Austria","countryCode":"AT","region":null,"locality":null,"website":null,"badge":"Climbing spot","stat":"Sport climbing","tags":["Sport"]}},{"type":"Feature","geometry":{"type":"Point","coordinates":[9.8931,47.4314]},"properties":{"id":"n13165817948","name":"?","country":"Austria","countryCode":"AT","region":null,"locality":null,"website":null,"badge":"Climbing spot","stat":"Sport climbing","tags":["Sport"]}},{"type":"Feature","geometry":{"type":"Point","coordinates":[9.8931,47.43141]},"properties":{"id":"w1432361897","name":"?","country":"Austria","countryCode":"AT","region":null,"locality":null,"website":null,"badge":"Climbing spot","stat":"Sport climbing","tags":["Sport"]}},{"type":"Feature","geometry":{"type":"Point","coordinates":[12.77807,47.50814]},"properties":{"id":"n13355685150","name":"'s Lenal","country":"Austria","countryCode":"AT","region":null,"locality":null,"website":null,"badge":"Climbing spot","stat":"Sport climbing","tags":[]}},{"type":"Feature","geometry":{"type":"Point","coordinates":[11.14753,47.37694]},"properties":{"id":"n13352788830","name":"@","country":"Austria","countryCode":"AT","region":null,"locality":null,"website":null,"badge":"Climbing spot","stat":"Sport climbing","tags":[]}},{"type":"Feature","geometry":{"type":"Point","coordinates":[11.70718,47.03765]},"properties":{"id":"w686314791","name":"#Schlegeis 131 The Wall","country":"Austria","countryCode":"AT","region":null,"locality":null,"website":"https://www.schlegeis131.com/climbing.html","badge":"Climbing spot","stat":"Sport climbing","tags":["Sport","Graded routes"]}},{"type":"Feature","geometry":{"type":"Point","coordinates":[12.56434,47.5552]},"properties":{"id":"n13388628089","name":"´s Achterl","country":"Austria","countryCode":"AT","region":null,"locality":null,"website":null,"badge":"Climbing spot","stat":"Sport climbing","tags":[]}},{"type":"Feature","geometry":{"type":"Point","coordinates":[10.85242,47.21709]},"properties":{"id":"n13394695081","name":"007","country":"Austria","countryCode":"AT","region":null,"locality":null,"website":null,"badge":"Climbing spot","stat":"Sport climbing","tags":[]}},{"type":"Feature","geometry":{"type":"Point","coordinates":[12.19383,47.53196]},"properties":{"id":"n13442318664","name":"007","country":"Austria","countryCode":"AT","region":null,"locality":null,"website":null,"badge":"Climbing spot","stat":"Sport climbing","tags":[]}},{"type":"Feature","geometry":{"type":"Point","coordinates":[10.96363,47.42282]},"properties":{"id":"n2895104329","name":"1 Hütte Bergrettung- Sektor 2 Graue Wand","country":"Austria","countryCode":"AT","region":null,"locality":null,"website":null,"badge":"Climbing spot","stat":"Sport climbing","tags":["Sport","Graded routes"]}},{"type":"Feature","geometry":{"type":"Point","coordinates":[10.85246,47.21709]},"properties":{"id":"n13394695077","name":"1,2,7","country":"Austria","countryCode":"AT","region":null,"locality":null,"website":null,"badge":"Climbing spot","stat":"Sport climbing","tags":[]}},{"type":"Feature","geometry":{"type":"Point","coordinates":[15.32093,48.56697]},"properties":{"id":"n12803710595","name":"1. September","country":"Austria","countryCode":"AT","region":null,"locality":null,"website":null,"badge":"Climbing spot","stat":"Sport climbing","tags":[]}},{"type":"Feature","geometry":{"type":"Point","coordinates":[9.7787,47.17902]},"properties":{"id":"n13317633963","name":"1.Advent","country":"Austria","countryCode":"AT","region":null,"locality":null,"website":null,"badge":"Climbing spot","stat":"Sport climbing","tags":["Sport"]}},{"type":"Feature","geometry":{"type":"Point","coordinates":[15.32133,48.56682]},"properties":{"id":"n12803713013","name":"1/2 so wüd","country":"Austria","countryCode":"AT","region":null,"locality":null,"website":null,"badge":"Climbing spot","stat":"Sport climbing","tags":[]}},{"type":"Feature","geometry":{"type":"Point","coordinates":[10.84333,47.31784]},"properties":{"id":"n13415546108","name":"1000 Volt","country":"Austria","countryCode":"AT","region":null,"locality":null,"website":null,"badge":"Climbing spot","stat":"Sport climbing","tags":[]}},{"type":"Feature","geometry":{"type":"Point","coordinates":[10.91643,47.16697]},"properties":{"id":"n13388774466","name":"1001 Nacht","country":"Austria","countryCode":"AT","region":null,"locality":null,"website":null,"badge":"Climbing spot","stat":"Sport climbing","tags":[]}},{"type":"Feature","geometry":{"type":"Point","coordinates":[16.04753,47.83]},"properties":{"id":"n12350959906","name":"14","country":"Austria","countryCode":"AT","region":null,"locality":null,"website":null,"badge":"Climbing spot","stat":"Sport climbing","tags":[]}},{"type":"Feature","geometry":{"type":"Point","coordinates":[16.04754,47.82999]},"properties":{"id":"n12350959907","name":"15","country":"Austria","countryCode":"AT","region":null,"locality":null,"website":null,"badge":"Climbing spot","stat":"Sport climbing","tags":[]}},{"type":"Feature","geometry":{"type":"Point","coordinates":[10.99534,47.01768]},"properties":{"id":"n13397352209","name":"17","country":"Austria","countryCode":"AT","region":null,"locality":null,"website":null,"badge":"Climbing spot","stat":"Sport climbing","tags":[]}},{"type":"Feature","geometry":{"type":"Point","coordinates":[15.32095,48.56697]},"properties":{"id":"n12803710596","name":"2. September","country":"Austria","countryCode":"AT","region":null,"locality":null,"website":null,"badge":"Climbing spot","stat":"Sport climbing","tags":[]}},{"type":"Feature","geometry":{"type":"Point","coordinates":[9.77869,47.17903]},"properties":{"id":"n13317633964","name":"2.Advent","country":"Austria","countryCode":"AT","region":null,"locality":null,"website":null,"badge":"Climbing spot","stat":"Sport climbing","tags":["Sport"]}},{"type":"Feature","geometry":{"type":"Point","coordinates":[16.04769,47.82995]},"properties":{"id":"n12350902868","name":"26","country":"Austria","countryCode":"AT","region":null,"locality":null,"website":null,"badge":"Climbing spot","stat":"Sport climbing","tags":[]}},{"type":"Feature","geometry":{"type":"Point","coordinates":[16.04771,47.82996]},"properties":{"id":"n12350902869","name":"27","country":"Austria","countryCode":"AT","region":null,"locality":null,"website":null,"badge":"Climbing spot","stat":"Sport climbing","tags":[]}},{"type":"Feature","geometry":{"type":"Point","coordinates":[16.04773,47.82996]},"properties":{"id":"n12350902870","name":"28","country":"Austria","countryCode":"AT","region":null,"locality":null,"website":null,"badge":"Climbing spot","stat":"Sport climbing","tags":[]}},{"type":"Feature","geometry":{"type":"Point","coordinates":[16.0477,47.82998]},"properties":{"id":"n12350902874","name":"29","country":"Austria","countryCode":"AT","region":null,"locality":null,"website":null,"badge":"Climbing spot","stat":"Sport climbing","tags":[]}},{"type":"Feature","geometry":{"type":"Point","coordinates":[11.17537,47.3859]},"properties":{"id":"n13352815742","name":"2nd Chance","country":"Austria","countryCode":"AT","region":null,"locality":null,"website":null,"badge":"Climbing spot","stat":"Sport climbing","tags":[]}},{"type":"Feature","geometry":{"type":"Point","coordinates":[16.04729,47.83006]},"properties":{"id":"n12350888439","name":"3","country":"Austria","countryCode":"AT","region":null,"locality":null,"website":null,"badge":"Climbing spot","stat":"Sport climbing","tags":[]}},{"type":"Feature","geometry":{"type":"Point","coordinates":[12.23321,47.64799]},"properties":{"id":"n13351447660","name":"3 Sommer in Tirol","country":"Austria","countryCode":"AT","region":null,"locality":null,"website":null,"badge":"Climbing spot","stat":"Sport climbing","tags":[]}},{"type":"Feature","geometry":{"type":"Point","coordinates":[9.77869,47.17903]},"properties":{"id":"n13317633965","name":"3.Advent","country":"Austria","countryCode":"AT","region":null,"locality":null,"website":null,"badge":"Climbing spot","stat":"Sport climbing","tags":["Sport"]}},{"type":"Feature","geometry":{"type":"Point","coordinates":[16.04774,47.82995]},"properties":{"id":"n12350902871","name":"30","country":"Austria","countryCode":"AT","region":null,"locality":null,"website":null,"badge":"Climbing spot","stat":"Sport climbing","tags":[]}},{"type":"Feature","geometry":{"type":"Point","coordinates":[16.04776,47.82997]},"properties":{"id":"n12350902873","name":"31","country":"Austria","countryCode":"AT","region":null,"locality":null,"website":null,"badge":"Climbing spot","stat":"Sport climbing","tags":[]}},{"type":"Feature","geometry":{"type":"Point","coordinates":[16.04775,47.82993]},"properties":{"id":"n12350902872","name":"32","country":"Austria","countryCode":"AT","region":null,"locality":null,"website":null,"badge":"Climbing spot","stat":"Sport climbing","tags":[]}},{"type":"Feature","geometry":{"type":"Point","coordinates":[16.04731,47.83007]},"properties":{"id":"n12350888440","name":"4","country":"Austria","countryCode":"AT","region":null,"locality":null,"website":null,"badge":"Climbing spot","stat":"Sport climbing","tags":[]}},{"type":"Feature","geometry":{"type":"Point","coordinates":[9.77869,47.17904]},"properties":{"id":"n13317633966","name":"4.Advent","country":"Austria","countryCode":"AT","region":null,"locality":null,"website":null,"badge":"Climbing spot","stat":"Sport climbing","tags":["Sport"]}},{"type":"Feature","geometry":{"type":"Point","coordinates":[12.35531,47.54504]},"properties":{"id":"n13418345453","name":"420","country":"Austria","countryCode":"AT","region":null,"locality":null,"website":null,"badge":"Climbing spot","stat":"Sport climbing","tags":[]}},{"type":"Feature","geometry":{"type":"Point","coordinates":[12.27769,47.55601]},"properties":{"id":"n13426696839","name":"46 plus","country":"Austria","countryCode":"AT","region":null,"locality":null,"website":null,"badge":"Climbing spot","stat":"Sport climbing","tags":[]}},{"type":"Feature","geometry":{"type":"Point","coordinates":[16.04733,47.83007]},"properties":{"id":"n12350888441","name":"5","country":"Austria","countryCode":"AT","region":null,"locality":null,"website":null,"badge":"Climbing spot","stat":"Sport climbing","tags":[]}},{"type":"Feature","geometry":{"type":"Point","coordinates":[12.32144,47.55308]},"properties":{"id":"n13442662114","name":"5a","country":"Austria","countryCode":"AT","region":null,"locality":null,"website":null,"badge":"Climbing spot","stat":"Sport climbing","tags":[]}},{"type":"Feature","geometry":{"type":"Point","coordinates":[16.04735,47.83007]},"properties":{"id":"n12350888442","name":"6","country":"Austria","countryCode":"AT","region":null,"locality":null,"website":null,"badge":"Climbing spot","stat":"Sport climbing","tags":[]}},{"type":"Feature","geometry":{"type":"Point","coordinates":[16.04737,47.83006]},"properties":{"id":"n12350820088","name":"7","country":"Austria","countryCode":"AT","region":null,"locality":null,"website":null,"badge":"Climbing spot","stat":"Sport climbing","tags":[]}},{"type":"Feature","geometry":{"type":"Point","coordinates":[12.19333,47.53207]},"properties":{"id":"n13442318618","name":"7 Zwerge","country":"Austria","countryCode":"AT","region":null,"locality":null,"website":null,"badge":"Climbing spot","stat":"Sport climbing","tags":[]}},{"type":"Feature","geometry":{"type":"Point","coordinates":[16.04746,47.83003]},"properties":{"id":"n12350820090","name":"9","country":"Austria","countryCode":"AT","region":null,"locality":null,"website":null,"badge":"Climbing spot","stat":"Sport climbing","tags":[]}},{"type":"Feature","geometry":{"type":"Point","coordinates":[10.86972,46.95823]},"properties":{"id":"n13464263342","name":"99er Baum","country":"Austria","countryCode":"AT","region":null,"locality":null,"website":null,"badge":"Climbing spot","stat":"Sport climbing","tags":["Sport","Trad"]}},{"type":"Feature","geometry":{"type":"Point","coordinates":[10.8524,47.21709]},"properties":{"id":"n13394695083","name":"A Hit","country":"Austria","countryCode":"AT","region":null,"locality":null,"website":null,"badge":"Climbing spot","stat":"Sport climbing","tags":[]}},{"type":"Feature","geometry":{"type":"Point","coordinates":[15.46785,48.38403]},"properties":{"id":"n8567204073","name":"a la bonne heure","country":"Austria","countryCode":"AT","region":null,"locality":null,"website":null,"badge":"Climbing spot","stat":"Sport climbing","tags":[]}},{"type":"Feature","geometry":{"type":"Point","coordinates":[12.36077,47.54494]},"properties":{"id":"n13426341435","name":"A tergo","country":"Austria","countryCode":"AT","region":null,"locality":null,"website":null,"badge":"Climbing spot","stat":"Sport climbing","tags":[]}},{"type":"Feature","geometry":{"type":"Point","coordinates":[10.84592,47.31594]},"properties":{"id":"n13415577634","name":"A1","country":"Austria","countryCode":"AT","region":null,"locality":null,"website":null,"badge":"Climbing spot","stat":"Sport climbing","tags":[]}},{"type":"Feature","geometry":{"type":"Point","coordinates":[10.20323,47.26159]},"properties":{"id":"n13150952410","name":"a2+b2=h2","country":"Austria","countryCode":"AT","region":null,"locality":null,"website":null,"badge":"Climbing spot","stat":"Sport climbing","tags":["Sport"]}},{"type":"Feature","geometry":{"type":"Point","coordinates":[12.23774,47.60667]},"properties":{"id":"n13351454439","name":"Aalglatt bis schuppig","country":"Austria","countryCode":"AT","region":null,"locality":null,"website":null,"badge":"Climbing spot","stat":"Sport climbing","tags":[]}},{"type":"Feature","geometry":{"type":"Point","coordinates":[10.95245,47.07475]},"properties":{"id":"n13397154413","name":"Abbey Road","country":"Austria","countryCode":"AT","region":null,"locality":null,"website":null,"badge":"Climbing spot","stat":"Sport climbing","tags":[]}},{"type":"Feature","geometry":{"type":"Point","coordinates":[15.52433,48.39726]},"properties":{"id":"w1330244057","name":"Abendlichtplatte","country":"Austria","countryCode":"AT","region":null,"locality":null,"website":null,"badge":"Climbing spot","stat":"Climbing area","tags":[]}},{"type":"Feature","geometry":{"type":"Point","coordinates":[15.52433,48.39726]},"properties":{"id":"r18242755","name":"Abendlichtplatte","country":"Austria","countryCode":"AT","region":null,"locality":null,"website":null,"badge":"Climbing spot","stat":"Climbing area","tags":[]}},{"type":"Feature","geometry":{"type":"Point","coordinates":[10.62116,47.49605]},"properties":{"id":"n2889584210","name":"Abenteuerland","country":"Austria","countryCode":"AT","region":null,"locality":null,"website":null,"badge":"Climbing spot","stat":"Climbing area","tags":[]}},{"type":"Feature","geometry":{"type":"Point","coordinates":[11.14773,47.37697]},"properties":{"id":"n13352788842","name":"Abgebogen","country":"Austria","countryCode":"AT","region":null,"locality":null,"website":null,"badge":"Climbing spot","stat":"Sport climbing","tags":[]}},{"type":"Feature","geometry":{"type":"Point","coordinates":[12.35694,47.54473]},"properties":{"id":"n13426261612","name":"Abkürzung","country":"Austria","countryCode":"AT","region":null,"locality":null,"website":null,"badge":"Climbing spot","stat":"Sport climbing","tags":[]}},{"type":"Feature","geometry":{"type":"Point","coordinates":[12.33475,47.54882]},"properties":{"id":"n13417629726","name":"Abschuss","country":"Austria","countryCode":"AT","region":null,"locality":null,"website":null,"badge":"Climbing spot","stat":"Sport climbing","tags":[]}},{"type":"Feature","geometry":{"type":"Point","coordinates":[10.55736,47.53675]},"properties":{"id":"n12293743395","name":"Abseilpiste","country":"Austria","countryCode":"AT","region":null,"locality":null,"website":null,"badge":"Climbing spot","stat":"Climbing area","tags":[]}},{"type":"Feature","geometry":{"type":"Point","coordinates":[10.96073,47.19101]},"properties":{"id":"w341308652","name":"Acherkogel Nordostgrat","country":"Austria","countryCode":"AT","region":null,"locality":null,"website":null,"badge":"Climbing spot","stat":"Climbing area","tags":[]}},{"type":"Feature","geometry":{"type":"Point","coordinates":[15.47797,48.40493]},"properties":{"id":"w337063297","name":"Achleitenwand","country":"Austria","countryCode":"AT","region":null,"locality":null,"website":"https://www.bergsteigen.com/touren/klettergarten/weissenkirchen-achleitenwand/","badge":"Climbing spot","stat":"Natural crag","tags":[]}},{"type":"Feature","geometry":{"type":"Point","coordinates":[15.47797,48.40493]},"properties":{"id":"r18219096","name":"Achleitenwand","country":"Austria","countryCode":"AT","region":null,"locality":null,"website":null,"badge":"Climbing spot","stat":"Climbing area","tags":[]}},{"type":"Feature","geometry":{"type":"Point","coordinates":[12.19329,47.53213]},"properties":{"id":"n13426744964","name":"Acquafresh","country":"Austria","countryCode":"AT","region":null,"locality":null,"website":null,"badge":"Climbing spot","stat":"Sport climbing","tags":[]}},{"type":"Feature","geometry":{"type":"Point","coordinates":[12.76937,47.53321]},"properties":{"id":"n13361073466","name":"Activisor","country":"Austria","countryCode":"AT","region":null,"locality":null,"website":null,"badge":"Climbing spot","stat":"Sport climbing","tags":[]}},{"type":"Feature","geometry":{"type":"Point","coordinates":[16.01468,47.80949]},"properties":{"id":"w293960049","name":"Adalbertwand","country":"Austria","countryCode":"AT","region":null,"locality":null,"website":null,"badge":"Climbing spot","stat":"Natural crag","tags":[]}},{"type":"Feature","geometry":{"type":"Point","coordinates":[16.01468,47.80969]},"properties":{"id":"r18160224","name":"Adalbertwand","country":"Austria","countryCode":"AT","region":null,"locality":null,"website":null,"badge":"Climbing spot","stat":"Climbing area","tags":[]}},{"type":"Feature","geometry":{"type":"Point","coordinates":[9.57976,47.25232]},"properties":{"id":"n13066847040","name":"Adam's Delight","country":"Austria","countryCode":"AT","region":null,"locality":null,"website":null,"badge":"Climbing spot","stat":"Sport climbing","tags":["Sport"]}},{"type":"Feature","geometry":{"type":"Point","coordinates":[15.46799,48.38377]},"properties":{"id":"n8463657268","name":"Adipöser Defätismus","country":"Austria","countryCode":"AT","region":null,"locality":null,"website":null,"badge":"Climbing spot","stat":"Sport climbing","tags":[]}},{"type":"Feature","geometry":{"type":"Point","coordinates":[13.81917,47.88031]},"properties":{"id":"n911877804","name":"Adlerhorst","country":"Austria","countryCode":"AT","region":null,"locality":null,"website":null,"badge":"Climbing spot","stat":"Natural crag","tags":["Limestone"]}},{"type":"Feature","geometry":{"type":"Point","coordinates":[10.84273,47.31808]},"properties":{"id":"n13415532889","name":"Adlerhorst","country":"Austria","countryCode":"AT","region":null,"locality":null,"website":null,"badge":"Climbing spot","stat":"Sport climbing","tags":["Multipitch"]}},{"type":"Feature","geometry":{"type":"Point","coordinates":[13.81917,47.88031]},"properties":{"id":"r18181391","name":"Adlerhorst","country":"Austria","countryCode":"AT","region":null,"locality":null,"website":"https://www.klettern-adlerhorst.com","badge":"Climbing spot","stat":"Climbing area","tags":[]}},{"type":"Feature","geometry":{"type":"Point","coordinates":[15.79477,47.6572]},"properties":{"id":"r18166829","name":"Adlitzgräben Mixed","country":"Austria","countryCode":"AT","region":null,"locality":null,"website":null,"badge":"Climbing spot","stat":"Climbing area","tags":[]}},{"type":"Feature","geometry":{"type":"Point","coordinates":[12.5643,47.55514]},"properties":{"id":"n13388628084","name":"Adolari-Menü","country":"Austria","countryCode":"AT","region":null,"locality":null,"website":null,"badge":"Climbing spot","stat":"Sport climbing","tags":[]}},{"type":"Feature","geometry":{"type":"Point","coordinates":[12.35698,47.54473]},"properties":{"id":"n13426261614","name":"Aeroflot","country":"Austria","countryCode":"AT","region":null,"locality":null,"website":null,"badge":"Climbing spot","stat":"Sport climbing","tags":[]}},{"type":"Feature","geometry":{"type":"Point","coordinates":[12.60457,47.50595]},"properties":{"id":"n13361094843","name":"Affenbande","country":"Austria","countryCode":"AT","region":null,"locality":null,"website":null,"badge":"Climbing spot","stat":"Sport climbing","tags":[]}},{"type":"Feature","geometry":{"type":"Point","coordinates":[12.14955,47.59253]},"properties":{"id":"n12980413104","name":"Affenhang","country":"Austria","countryCode":"AT","region":null,"locality":null,"website":null,"badge":"Climbing spot","stat":"Sport climbing","tags":[]}},{"type":"Feature","geometry":{"type":"Point","coordinates":[10.62752,47.18512]},"properties":{"id":"n2340436423","name":"Affenhimmel","country":"Austria","countryCode":"AT","region":null,"locality":null,"website":null,"badge":"Climbing spot","stat":"Climbing area","tags":[]}},{"type":"Feature","geometry":{"type":"Point","coordinates":[10.84297,47.31806]},"properties":{"id":"n13415532891","name":"Affenschaukel","country":"Austria","countryCode":"AT","region":null,"locality":null,"website":null,"badge":"Climbing spot","stat":"Sport climbing","tags":[]}},{"type":"Feature","geometry":{"type":"Point","coordinates":[9.89955,47.08448]},"properties":{"id":"n13246380748","name":"Affentanz","country":"Austria","countryCode":"AT","region":null,"locality":null,"website":null,"badge":"Climbing spot","stat":"Sport climbing","tags":["Sport"]}},{"type":"Feature","geometry":{"type":"Point","coordinates":[9.63935,47.3219]},"properties":{"id":"n13474661805","name":"Against the establishment","country":"Austria","countryCode":"AT","region":null,"locality":null,"website":null,"badge":"Climbing spot","stat":"Sport climbing","tags":["Sport"]}},{"type":"Feature","geometry":{"type":"Point","coordinates":[10.55523,47.53695]},"properties":{"id":"n2901410950","name":"Aggenstein - Kemptener Kante","country":"Austria","countryCode":"AT","region":null,"locality":null,"website":null,"badge":"Climbing spot","stat":"Sport climbing","tags":["Sport","Multipitch"]}},{"type":"Feature","geometry":{"type":"Point","coordinates":[10.55796,47.53769]},"properties":{"id":"n2895226729","name":"Aggenstein - Nordseite","country":"Austria","countryCode":"AT","region":null,"locality":null,"website":null,"badge":"Climbing spot","stat":"Sport climbing","tags":["Sport","Multipitch"]}},{"type":"Feature","geometry":{"type":"Point","coordinates":[10.55607,47.53704]},"properties":{"id":"n2901410952","name":"Aggenstein - Westseite","country":"Austria","countryCode":"AT","region":null,"locality":null,"website":null,"badge":"Climbing spot","stat":"Sport climbing","tags":["Sport","Multipitch"]}},{"type":"Feature","geometry":{"type":"Point","coordinates":[12.19024,47.59336]},"properties":{"id":"n13351455757","name":"Ahua!","country":"Austria","countryCode":"AT","region":null,"locality":null,"website":null,"badge":"Climbing spot","stat":"Sport climbing","tags":[]}},{"type":"Feature","geometry":{"type":"Point","coordinates":[15.32143,48.56674]},"properties":{"id":"n12803713020","name":"Airwalk","country":"Austria","countryCode":"AT","region":null,"locality":null,"website":null,"badge":"Climbing spot","stat":"Sport climbing","tags":[]}},{"type":"Feature","geometry":{"type":"Point","coordinates":[15.76083,47.74189]},"properties":{"id":"w493761734","name":"Akademikersteig","country":"Austria","countryCode":"AT","region":null,"locality":null,"website":null,"badge":"Climbing spot","stat":"Climbing area","tags":[]}},{"type":"Feature","geometry":{"type":"Point","coordinates":[12.76801,47.51375]},"properties":{"id":"n13352996351","name":"Akne X","country":"Austria","countryCode":"AT","region":null,"locality":null,"website":null,"badge":"Climbing spot","stat":"Sport climbing","tags":[]}},{"type":"Feature","geometry":{"type":"Point","coordinates":[10.61863,47.49997]},"properties":{"id":"n2889584211","name":"Akrophobie; Miss Nesselwängle","country":"Austria","countryCode":"AT","region":null,"locality":null,"website":null,"badge":"Climbing spot","stat":"Climbing area","tags":[]}},{"type":"Feature","geometry":{"type":"Point","coordinates":[12.76193,47.51965]},"properties":{"id":"n13355152647","name":"Al Bundy","country":"Austria","countryCode":"AT","region":null,"locality":null,"website":null,"badge":"Climbing spot","stat":"Sport climbing","tags":[]}},{"type":"Feature","geometry":{"type":"Point","coordinates":[12.36141,47.54518]},"properties":{"id":"n13426630031","name":"Al Capone","country":"Austria","countryCode":"AT","region":null,"locality":null,"website":null,"badge":"Climbing spot","stat":"Sport climbing","tags":[]}},{"type":"Feature","geometry":{"type":"Point","coordinates":[12.77483,47.50546]},"properties":{"id":"n13355765773","name":"Aladin","country":"Austria","countryCode":"AT","region":null,"locality":null,"website":null,"badge":"Climbing spot","stat":"Sport climbing","tags":[]}},{"type":"Feature","geometry":{"type":"Point","coordinates":[12.76209,47.51958]},"properties":{"id":"n13355152654","name":"Alaskaträume","country":"Austria","countryCode":"AT","region":null,"locality":null,"website":null,"badge":"Climbing spot","stat":"Sport climbing","tags":[]}},{"type":"Feature","geometry":{"type":"Point","coordinates":[11.05214,47.08656]},"properties":{"id":"n13388748783","name":"Alberta","country":"Austria","countryCode":"AT","region":null,"locality":null,"website":null,"badge":"Climbing spot","stat":"Sport climbing","tags":[]}},{"type":"Feature","geometry":{"type":"Point","coordinates":[12.804,47.50438]},"properties":{"id":"w735209352","name":"Alex die Hex","country":"Austria","countryCode":"AT","region":null,"locality":null,"website":null,"badge":"Climbing spot","stat":"Climbing area","tags":[]}},{"type":"Feature","geometry":{"type":"Point","coordinates":[12.27778,47.55567]},"properties":{"id":"n13426696846","name":"Alex's Hiltiride","country":"Austria","countryCode":"AT","region":null,"locality":null,"website":null,"badge":"Climbing spot","stat":"Sport climbing","tags":[]}},{"type":"Feature","geometry":{"type":"Point","coordinates":[10.91635,47.16712]},"properties":{"id":"n13388774445","name":"Alis Weg","country":"Austria","countryCode":"AT","region":null,"locality":null,"website":null,"badge":"Climbing spot","stat":"Sport climbing","tags":[]}},{"type":"Feature","geometry":{"type":"Point","coordinates":[12.23756,47.60658]},"properties":{"id":"n13351454430","name":"Alle Neune","country":"Austria","countryCode":"AT","region":null,"locality":null,"website":null,"badge":"Climbing spot","stat":"Sport climbing","tags":[]}},{"type":"Feature","geometry":{"type":"Point","coordinates":[12.75911,47.52185]},"properties":{"id":"n13355152605","name":"Allegretto","country":"Austria","countryCode":"AT","region":null,"locality":null,"website":null,"badge":"Climbing spot","stat":"Sport climbing","tags":[]}},{"type":"Feature","geometry":{"type":"Point","coordinates":[12.75911,47.52185]},"properties":{"id":"n13355152606","name":"Allegro assai","country":"Austria","countryCode":"AT","region":null,"locality":null,"website":null,"badge":"Climbing spot","stat":"Sport climbing","tags":[]}},{"type":"Feature","geometry":{"type":"Point","coordinates":[12.75954,47.51836]},"properties":{"id":"n13361558690","name":"Aller Anfang..","country":"Austria","countryCode":"AT","region":null,"locality":null,"website":null,"badge":"Climbing spot","stat":"Sport climbing","tags":[]}},{"type":"Feature","geometry":{"type":"Point","coordinates":[10.61311,47.4929]},"properties":{"id":"w1088912491","name":"Allgäuer Wand","country":"Austria","countryCode":"AT","region":null,"locality":null,"website":null,"badge":"Climbing spot","stat":"Sport climbing","tags":["Sport"]}},{"type":"Feature","geometry":{"type":"Point","coordinates":[13.44646,47.00359]},"properties":{"id":"n4929963800","name":"Alligator","country":"Austria","countryCode":"AT","region":null,"locality":null,"website":null,"badge":"Climbing spot","stat":"Bouldering","tags":["Boulder"]}},{"type":"Feature","geometry":{"type":"Point","coordinates":[15.9468,47.28858]},"properties":{"id":"n4209151707","name":"Allmerfelsen","country":"Austria","countryCode":"AT","region":null,"locality":null,"website":null,"badge":"Climbing spot","stat":"Climbing area","tags":[]}},{"type":"Feature","geometry":{"type":"Point","coordinates":[15.4681,48.38382]},"properties":{"id":"n8568667193","name":"Allora","country":"Austria","countryCode":"AT","region":null,"locality":null,"website":null,"badge":"Climbing spot","stat":"Sport climbing","tags":[]}},{"type":"Feature","geometry":{"type":"Point","coordinates":[16.05484,47.83468]},"properties":{"id":"w132205642","name":"Almfriedenwände","country":"Austria","countryCode":"AT","region":null,"locality":null,"website":null,"badge":"Climbing spot","stat":"Natural crag","tags":[]}},{"type":"Feature","geometry":{"type":"Point","coordinates":[16.05536,47.83504]},"properties":{"id":"w132205644","name":"Almfriedenwände","country":"Austria","countryCode":"AT","region":null,"locality":null,"website":null,"badge":"Climbing spot","stat":"Natural crag","tags":[]}},{"type":"Feature","geometry":{"type":"Point","coordinates":[13.03379,47.58013]},"properties":{"id":"w741933169","name":"Almroas","country":"Austria","countryCode":"AT","region":null,"locality":null,"website":null,"badge":"Climbing spot","stat":"Climbing area","tags":[]}},{"type":"Feature","geometry":{"type":"Point","coordinates":[12.27793,47.55621]},"properties":{"id":"n13426696834","name":"Almrose direkt","country":"Austria","countryCode":"AT","region":null,"locality":null,"website":null,"badge":"Climbing spot","stat":"Sport climbing","tags":[]}},{"type":"Feature","geometry":{"type":"Point","coordinates":[12.27795,47.55613]},"properties":{"id":"n13426696835","name":"Almrosenweg","country":"Austria","countryCode":"AT","region":null,"locality":null,"website":null,"badge":"Climbing spot","stat":"Sport climbing","tags":[]}},{"type":"Feature","geometry":{"type":"Point","coordinates":[11.94053,47.15626]},"properties":{"id":"n13450225349","name":"Almstüberl Eisfall","country":"Austria","countryCode":"AT","region":null,"locality":null,"website":null,"badge":"Climbing spot","stat":"Climbing area","tags":[]}},{"type":"Feature","geometry":{"type":"Point","coordinates":[12.79833,46.77397]},"properties":{"id":"n3112804285","name":"Alpenraute-Kamin","country":"Austria","countryCode":"AT","region":null,"locality":null,"website":null,"badge":"Climbing spot","stat":"Sport climbing","tags":[]}},{"type":"Feature","geometry":{"type":"Point","coordinates":[15.46794,48.3837]},"properties":{"id":"n8463657270","name":"Alpenstolz","country":"Austria","countryCode":"AT","region":null,"locality":null,"website":null,"badge":"Climbing spot","stat":"Sport climbing","tags":[]}},{"type":"Feature","geometry":{"type":"Point","coordinates":[16.08378,47.04908]},"properties":{"id":"n8197544410","name":"Alpenverein Kletterhalle","country":"Austria","countryCode":"AT","region":null,"locality":null,"website":null,"badge":"Climbing spot","stat":"Indoor climbing gym","tags":["Indoor"]}},{"type":"Feature","geometry":{"type":"Point","coordinates":[13.13962,47.62607]},"properties":{"id":"n6443943785","name":"Alpenverein Kuchl","country":"Austria","countryCode":"AT","region":null,"locality":"Kuchl","website":"https://www.alpenverein.at/kuchl/","badge":"Climbing spot","stat":"Climbing area","tags":[]}},{"type":"Feature","geometry":{"type":"Point","coordinates":[9.57943,47.25207]},"properties":{"id":"n12990303338","name":"Alphornkiffer","country":"Austria","countryCode":"AT","region":null,"locality":null,"website":null,"badge":"Climbing spot","stat":"Sport climbing","tags":["Sport"]}},{"type":"Feature","geometry":{"type":"Point","coordinates":[10.66413,47.25639]},"properties":{"id":"w1414669027","name":"Alpin(spiel)steig","country":"Austria","countryCode":"AT","region":null,"locality":null,"website":null,"badge":"Climbing spot","stat":"Natural crag","tags":[]}},{"type":"Feature","geometry":{"type":"Point","coordinates":[12.56431,47.55515]},"properties":{"id":"n13388619895","name":"Alpinist","country":"Austria","countryCode":"AT","region":null,"locality":null,"website":null,"badge":"Climbing spot","stat":"Sport climbing","tags":[]}},{"type":"Feature","geometry":{"type":"Point","coordinates":[11.28059,47.26852]},"properties":{"id":"w693588865","name":"Alpinmagazin","country":"Austria","countryCode":"AT","region":null,"locality":null,"website":"https://www.climbers-paradise.com/en/climbing-regions/innsbruck-region/sport-climbing/location/martinswand-alpinmagazin","badge":"Climbing spot","stat":"Sport climbing","tags":["Sport","Graded routes"]}},{"type":"Feature","geometry":{"type":"Point","coordinates":[14.58366,47.54434]},"properties":{"id":"r18300567","name":"Alpinpark Gesäuse-Johnsbach","country":"Austria","countryCode":"AT","region":null,"locality":null,"website":null,"badge":"Climbing spot","stat":"Climbing area","tags":[]}},{"type":"Feature","geometry":{"type":"Point","coordinates":[14.75898,47.28426]},"properties":{"id":"r17997468","name":"Alpinpark Steinmühle","country":"Austria","countryCode":"AT","region":null,"locality":null,"website":"https://www.alpineerlebniswelt.com/","badge":"Climbing spot","stat":"Indoor climbing gym","tags":["Indoor"]}},{"type":"Feature","geometry":{"type":"Point","coordinates":[12.23736,47.60645]},"properties":{"id":"n13351454422","name":"Alpintraining","country":"Austria","countryCode":"AT","region":null,"locality":null,"website":null,"badge":"Climbing spot","stat":"Sport climbing","tags":[]}},{"type":"Feature","geometry":{"type":"Point","coordinates":[10.84298,47.31802]},"properties":{"id":"n13415532892","name":"Alpintraining","country":"Austria","countryCode":"AT","region":null,"locality":null,"website":null,"badge":"Climbing spot","stat":"Sport climbing","tags":[]}},{"type":"Feature","geometry":{"type":"Point","coordinates":[12.19043,47.59327]},"properties":{"id":"n13351455767","name":"Alt und Neu","country":"Austria","countryCode":"AT","region":null,"locality":null,"website":null,"badge":"Climbing spot","stat":"Sport climbing","tags":[]}},{"type":"Feature","geometry":{"type":"Point","coordinates":[10.96378,47.42259]},"properties":{"id":"n2895104305","name":"Alte 4er Stütze - Sektor 2 Graue Wand","country":"Austria","countryCode":"AT","region":null,"locality":null,"website":null,"badge":"Climbing spot","stat":"Sport climbing","tags":["Sport","Graded routes"]}},{"type":"Feature","geometry":{"type":"Point","coordinates":[10.96402,47.42225]},"properties":{"id":"n2895104306","name":"Alte 4er Stütze - Sektor 3 Gelbe Wand","country":"Austria","countryCode":"AT","region":null,"locality":null,"website":null,"badge":"Climbing spot","stat":"Sport climbing","tags":["Sport","Graded routes"]}},{"type":"Feature","geometry":{"type":"Point","coordinates":[10.96428,47.42206]},"properties":{"id":"n2346321958","name":"Alte 4er Stütze - Sektor 4 Georg Jäger","country":"Austria","countryCode":"AT","region":null,"locality":null,"website":null,"badge":"Climbing spot","stat":"Sport climbing","tags":["Sport","Graded routes"]}},{"type":"Feature","geometry":{"type":"Point","coordinates":[10.06502,47.15251]},"properties":{"id":"n9863711824","name":"Alte Südwand","country":"Austria","countryCode":"AT","region":null,"locality":null,"website":null,"badge":"Climbing spot","stat":"Climbing area","tags":[]}},{"type":"Feature","geometry":{"type":"Point","coordinates":[14.31441,47.77984]},"properties":{"id":"n13086739619","name":"Alte Südwand","country":"Austria","countryCode":"AT","region":null,"locality":null,"website":null,"badge":"Climbing spot","stat":"Sport climbing","tags":[]}},{"type":"Feature","geometry":{"type":"Point","coordinates":[12.19066,47.59316]},"properties":{"id":"n13351455785","name":"Alte Wand","country":"Austria","countryCode":"AT","region":null,"locality":null,"website":null,"badge":"Climbing spot","stat":"Sport climbing","tags":[]}},{"type":"Feature","geometry":{"type":"Point","coordinates":[15.76473,47.7463]},"properties":{"id":"n12947128111","name":"Alte Westwand","country":"Austria","countryCode":"AT","region":null,"locality":null,"website":null,"badge":"Climbing spot","stat":"Sport climbing","tags":[]}},{"type":"Feature","geometry":{"type":"Point","coordinates":[13.05406,47.60087]},"properties":{"id":"w731741334","name":"Alte Westwand","country":"Austria","countryCode":"AT","region":null,"locality":null,"website":null,"badge":"Climbing spot","stat":"Climbing area","tags":[]}},{"type":"Feature","geometry":{"type":"Point","coordinates":[15.67188,47.69332]},"properties":{"id":"n12772820108","name":"Altenbergerwand (Westwand) dir. Bergsteigerklubweg","country":"Austria","countryCode":"AT","region":null,"locality":null,"website":null,"badge":"Climbing spot","stat":"Sport climbing","tags":[]}},{"type":"Feature","geometry":{"type":"Point","coordinates":[14.58497,47.57407]},"properties":{"id":"r19472169","name":"Alter Klettergarten","country":"Austria","countryCode":"AT","region":null,"locality":null,"website":null,"badge":"Climbing spot","stat":"Climbing area","tags":[]}},{"type":"Feature","geometry":{"type":"Point","coordinates":[10.59251,47.16431]},"properties":{"id":"w819830352","name":"Alter Klettergarten KH Zams","country":"Austria","countryCode":"AT","region":null,"locality":null,"website":null,"badge":"Climbing spot","stat":"Natural crag","tags":[]}},{"type":"Feature","geometry":{"type":"Point","coordinates":[12.76993,47.53324]},"properties":{"id":"n13361073477","name":"Alter Knacker","country":"Austria","countryCode":"AT","region":null,"locality":null,"website":null,"badge":"Climbing spot","stat":"Sport climbing","tags":[]}},{"type":"Feature","geometry":{"type":"Point","coordinates":[12.60953,47.49657]},"properties":{"id":"n13361026534","name":"Alter Riss","country":"Austria","countryCode":"AT","region":null,"locality":null,"website":null,"badge":"Climbing spot","stat":"Sport climbing","tags":[]}},{"type":"Feature","geometry":{"type":"Point","coordinates":[15.58281,47.26466]},"properties":{"id":"n3561652803","name":"Alter Steinbruch","country":"Austria","countryCode":"AT","region":null,"locality":null,"website":null,"badge":"Climbing spot","stat":"Sport climbing","tags":["Sport","Graded routes"]}},{"type":"Feature","geometry":{"type":"Point","coordinates":[14.06587,47.69891]},"properties":{"id":"n12273133855","name":"Alternative Spaß","country":"Austria","countryCode":"AT","region":null,"locality":null,"website":null,"badge":"Climbing spot","stat":"Sport climbing","tags":[]}},{"type":"Feature","geometry":{"type":"Point","coordinates":[9.8439,47.13452]},"properties":{"id":"w739177429","name":"Altes Wändle","country":"Austria","countryCode":"AT","region":null,"locality":null,"website":null,"badge":"Climbing spot","stat":"Sport climbing","tags":["Sport","Graded routes"]}},{"type":"Feature","geometry":{"type":"Point","coordinates":[9.80159,47.15111]},"properties":{"id":"n13134824176","name":"Alviersand","country":"Austria","countryCode":"AT","region":null,"locality":null,"website":null,"badge":"Climbing spot","stat":"Sport climbing","tags":["Sport"]}},{"type":"Feature","geometry":{"type":"Point","coordinates":[9.80158,47.15111]},"properties":{"id":"w1428826181","name":"Alviersand: Bitch","country":"Austria","countryCode":"AT","region":null,"locality":null,"website":null,"badge":"Climbing spot","stat":"Sport climbing","tags":["Sport"]}},{"type":"Feature","geometry":{"type":"Point","coordinates":[11.03291,46.94511]},"properties":{"id":"n13448496417","name":"Alzenlehnerfall","country":"Austria","countryCode":"AT","region":null,"locality":null,"website":null,"badge":"Climbing spot","stat":"Climbing area","tags":[]}},{"type":"Feature","geometry":{"type":"Point","coordinates":[10.84387,47.3175]},"properties":{"id":"n13415546128","name":"Am Limit","country":"Austria","countryCode":"AT","region":null,"locality":null,"website":null,"badge":"Climbing spot","stat":"Sport climbing","tags":[]}},{"type":"Feature","geometry":{"type":"Point","coordinates":[12.77904,47.5042]},"properties":{"id":"n13388684579","name":"Amadeus","country":"Austria","countryCode":"AT","region":null,"locality":null,"website":null,"badge":"Climbing spot","stat":"Sport climbing","tags":[]}},{"type":"Feature","geometry":{"type":"Point","coordinates":[12.19354,47.53203]},"properties":{"id":"n13442318639","name":"Amadeus","country":"Austria","countryCode":"AT","region":null,"locality":null,"website":null,"badge":"Climbing spot","stat":"Sport climbing","tags":[]}},{"type":"Feature","geometry":{"type":"Point","coordinates":[13.13771,47.30898]},"properties":{"id":"n13074234768","name":"Ameisenbauch","country":"Austria","countryCode":"AT","region":null,"locality":null,"website":null,"badge":"Climbing spot","stat":"Sport climbing","tags":["Sport"]}},{"type":"Feature","geometry":{"type":"Point","coordinates":[9.99866,47.12384]},"properties":{"id":"n13156854637","name":"Ameisenloch","country":"Austria","countryCode":"AT","region":null,"locality":null,"website":null,"badge":"Climbing spot","stat":"Sport climbing","tags":["Sport"]}},{"type":"Feature","geometry":{"type":"Point","coordinates":[12.75965,47.51828]},"properties":{"id":"n13361558697","name":"Ameisenstraße","country":"Austria","countryCode":"AT","region":null,"locality":null,"website":null,"badge":"Climbing spot","stat":"Sport climbing","tags":[]}},{"type":"Feature","geometry":{"type":"Point","coordinates":[12.32245,47.5519]},"properties":{"id":"n13442662109","name":"Ameisentanz","country":"Austria","countryCode":"AT","region":null,"locality":null,"website":null,"badge":"Climbing spot","stat":"Sport climbing","tags":[]}},{"type":"Feature","geometry":{"type":"Point","coordinates":[12.77898,47.50421]},"properties":{"id":"n13388684577","name":"Ameisentrail","country":"Austria","countryCode":"AT","region":null,"locality":null,"website":null,"badge":"Climbing spot","stat":"Sport climbing","tags":[]}},{"type":"Feature","geometry":{"type":"Point","coordinates":[9.84007,47.14588]},"properties":{"id":"n13100841179","name":"Amok","country":"Austria","countryCode":"AT","region":null,"locality":null,"website":null,"badge":"Climbing spot","stat":"Sport climbing","tags":["Sport"]}},{"type":"Feature","geometry":{"type":"Point","coordinates":[9.63995,47.32187]},"properties":{"id":"n13462977412","name":"Amok","country":"Austria","countryCode":"AT","region":null,"locality":null,"website":null,"badge":"Climbing spot","stat":"Sport climbing","tags":["Sport"]}},{"type":"Feature","geometry":{"type":"Point","coordinates":[10.8825,47.20718]},"properties":{"id":"n13394772012","name":"Amor","country":"Austria","countryCode":"AT","region":null,"locality":null,"website":null,"badge":"Climbing spot","stat":"Sport climbing","tags":[]}},{"type":"Feature","geometry":{"type":"Point","coordinates":[10.85238,47.2171]},"properties":{"id":"n13394695086","name":"Amsel","country":"Austria","countryCode":"AT","region":null,"locality":null,"website":null,"badge":"Climbing spot","stat":"Sport climbing","tags":[]}},{"type":"Feature","geometry":{"type":"Point","coordinates":[12.7822,47.50378]},"properties":{"id":"n9901239473","name":"An Reini Seini","country":"Austria","countryCode":"AT","region":null,"locality":null,"website":null,"badge":"Climbing spot","stat":"Climbing area","tags":[]}},{"type":"Feature","geometry":{"type":"Point","coordinates":[12.14967,47.59269]},"properties":{"id":"n12980413117","name":"Anabel","country":"Austria","countryCode":"AT","region":null,"locality":null,"website":null,"badge":"Climbing spot","stat":"Sport climbing","tags":[]}},{"type":"Feature","geometry":{"type":"Point","coordinates":[12.76767,47.53299]},"properties":{"id":"n13361073431","name":"Anabolika","country":"Austria","countryCode":"AT","region":null,"locality":null,"website":null,"badge":"Climbing spot","stat":"Sport climbing","tags":[]}},{"type":"Feature","geometry":{"type":"Point","coordinates":[9.83974,47.14585]},"properties":{"id":"n13100841190","name":"Ancora Uno","country":"Austria","countryCode":"AT","region":null,"locality":null,"website":null,"badge":"Climbing spot","stat":"Sport climbing","tags":["Sport"]}},{"type":"Feature","geometry":{"type":"Point","coordinates":[10.12619,47.2813]},"properties":{"id":"n5699746179","name":"Anderl Heckmair Gedächtnisweg","country":"Austria","countryCode":"AT","region":null,"locality":null,"website":"http://www.walter-hoelzler.de","badge":"Climbing spot","stat":"Sport climbing","tags":["Sport","Multipitch","Graded routes"]}},{"type":"Feature","geometry":{"type":"Point","coordinates":[10.91643,47.16695]},"properties":{"id":"n13388774469","name":"Anderland","country":"Austria","countryCode":"AT","region":null,"locality":null,"website":null,"badge":"Climbing spot","stat":"Sport climbing","tags":[]}},{"type":"Feature","geometry":{"type":"Point","coordinates":[12.18996,47.59346]},"properties":{"id":"n13351455727","name":"Andrea","country":"Austria","countryCode":"AT","region":null,"locality":null,"website":null,"badge":"Climbing spot","stat":"Sport climbing","tags":[]}},{"type":"Feature","geometry":{"type":"Point","coordinates":[12.23743,47.6065]},"properties":{"id":"n13351454425","name":"Anfängerlust","country":"Austria","countryCode":"AT","region":null,"locality":null,"website":null,"badge":"Climbing spot","stat":"Sport climbing","tags":[]}},{"type":"Feature","geometry":{"type":"Point","coordinates":[12.19016,47.5934]},"properties":{"id":"n13351455752","name":"Angelika","country":"Austria","countryCode":"AT","region":null,"locality":null,"website":null,"badge":"Climbing spot","stat":"Sport climbing","tags":[]}},{"type":"Feature","geometry":{"type":"Point","coordinates":[9.80149,47.15086]},"properties":{"id":"w1431361004","name":"Angry Birds","country":"Austria","countryCode":"AT","region":null,"locality":null,"website":null,"badge":"Climbing spot","stat":"Sport climbing","tags":["Sport"]}},{"type":"Feature","geometry":{"type":"Point","coordinates":[12.19064,47.59317]},"properties":{"id":"n13351455784","name":"Anita","country":"Austria","countryCode":"AT","region":null,"locality":null,"website":null,"badge":"Climbing spot","stat":"Sport climbing","tags":[]}},{"type":"Feature","geometry":{"type":"Point","coordinates":[13.60998,47.46771]},"properties":{"id":"r18665805","name":"Anna Klettersteig","country":"Austria","countryCode":"AT","region":null,"locality":null,"website":null,"badge":"Climbing spot","stat":"Climbing area","tags":[]}},{"type":"Feature","geometry":{"type":"Point","coordinates":[14.08095,47.70616]},"properties":{"id":"w1097921518","name":"Anna Übungsklettersteig","country":"Austria","countryCode":"AT","region":null,"locality":null,"website":"https://www.bergsteigen.com/touren/klettersteig/prielschutzhaus-uebungsklettersteige/","badge":"Climbing spot","stat":"Climbing area","tags":[]}},{"type":"Feature","geometry":{"type":"Point","coordinates":[12.27764,47.55631]},"properties":{"id":"n13426696828","name":"Anna-Lena","country":"Austria","countryCode":"AT","region":null,"locality":null,"website":null,"badge":"Climbing spot","stat":"Sport climbing","tags":[]}},{"type":"Feature","geometry":{"type":"Point","coordinates":[16.26016,48.04873]},"properties":{"id":"n12292460670","name":"Anninger","country":"Austria","countryCode":"AT","region":null,"locality":null,"website":null,"badge":"Climbing spot","stat":"Climbing area","tags":[]}},{"type":"Feature","geometry":{"type":"Point","coordinates":[16.26016,48.04873]},"properties":{"id":"r18217413","name":"Anninger","country":"Austria","countryCode":"AT","region":null,"locality":null,"website":null,"badge":"Climbing spot","stat":"Climbing area","tags":[]}},{"type":"Feature","geometry":{"type":"Point","coordinates":[12.19341,47.5321]},"properties":{"id":"n13442318629","name":"Another Day in Paradise","country":"Austria","countryCode":"AT","region":null,"locality":null,"website":null,"badge":"Climbing spot","stat":"Sport climbing","tags":[]}},{"type":"Feature","geometry":{"type":"Point","coordinates":[9.63932,47.3219]},"properties":{"id":"n13474661804","name":"Antarctica","country":"Austria","countryCode":"AT","region":null,"locality":null,"website":null,"badge":"Climbing spot","stat":"Sport climbing","tags":["Sport"]}},{"type":"Feature","geometry":{"type":"Point","coordinates":[9.77873,47.17894]},"properties":{"id":"n13320143962","name":"Antidepressiva","country":"Austria","countryCode":"AT","region":null,"locality":null,"website":null,"badge":"Climbing spot","stat":"Sport climbing","tags":["Sport"]}},{"type":"Feature","geometry":{"type":"Point","coordinates":[9.63485,47.22957]},"properties":{"id":"n13321698831","name":"Antifaschist","country":"Austria","countryCode":"AT","region":null,"locality":null,"website":null,"badge":"Climbing spot","stat":"Sport climbing","tags":["Boulder"]}},{"type":"Feature","geometry":{"type":"Point","coordinates":[10.82291,47.31645]},"properties":{"id":"n13415548990","name":"Aphrodite","country":"Austria","countryCode":"AT","region":null,"locality":null,"website":null,"badge":"Climbing spot","stat":"Sport climbing","tags":[]}},{"type":"Feature","geometry":{"type":"Point","coordinates":[12.76799,47.51393]},"properties":{"id":"n13352996344","name":"Apollo","country":"Austria","countryCode":"AT","region":null,"locality":null,"website":null,"badge":"Climbing spot","stat":"Sport climbing","tags":[]}},{"type":"Feature","geometry":{"type":"Point","coordinates":[10.82295,47.31643]},"properties":{"id":"n13415548987","name":"Apollo","country":"Austria","countryCode":"AT","region":null,"locality":null,"website":null,"badge":"Climbing spot","stat":"Sport climbing","tags":[]}},{"type":"Feature","geometry":{"type":"Point","coordinates":[12.35486,47.54511]},"properties":{"id":"n13418345446","name":"Apollo 13","country":"Austria","countryCode":"AT","region":null,"locality":null,"website":null,"badge":"Climbing spot","stat":"Sport climbing","tags":[]}},{"type":"Feature","geometry":{"type":"Point","coordinates":[10.82294,47.31644]},"properties":{"id":"n13415548988","name":"Apollo direkt","country":"Austria","countryCode":"AT","region":null,"locality":null,"website":null,"badge":"Climbing spot","stat":"Sport climbing","tags":[]}},{"type":"Feature","geometry":{"type":"Point","coordinates":[12.19661,47.53159]},"properties":{"id":"n13426801086","name":"Apres-Ski","country":"Austria","countryCode":"AT","region":null,"locality":null,"website":null,"badge":"Climbing spot","stat":"Sport climbing","tags":[]}},{"type":"Feature","geometry":{"type":"Point","coordinates":[11.27703,47.26799]},"properties":{"id":"n9221009928","name":"Aprilscherz","country":"Austria","countryCode":"AT","region":null,"locality":null,"website":null,"badge":"Climbing spot","stat":"Sport climbing","tags":[]}},{"type":"Feature","geometry":{"type":"Point","coordinates":[12.36098,47.54497]},"properties":{"id":"n13426341452","name":"Aqualung","country":"Austria","countryCode":"AT","region":null,"locality":null,"website":null,"badge":"Climbing spot","stat":"Sport climbing","tags":[]}},{"type":"Feature","geometry":{"type":"Point","coordinates":[10.95102,47.07603]},"properties":{"id":"n13397207489","name":"Aquarell","country":"Austria","countryCode":"AT","region":null,"locality":null,"website":null,"badge":"Climbing spot","stat":"Sport climbing","tags":[]}},{"type":"Feature","geometry":{"type":"Point","coordinates":[12.3616,47.54522]},"properties":{"id":"r20028730","name":"Aquarium","country":"Austria","countryCode":"AT","region":null,"locality":null,"website":null,"badge":"Climbing spot","stat":"Climbing area","tags":[]}},{"type":"Feature","geometry":{"type":"Point","coordinates":[10.95131,47.07578]},"properties":{"id":"n13397207485","name":"Arabika","country":"Austria","countryCode":"AT","region":null,"locality":null,"website":null,"badge":"Climbing spot","stat":"Sport climbing","tags":[]}},{"type":"Feature","geometry":{"type":"Point","coordinates":[12.76947,47.5332]},"properties":{"id":"n13361073468","name":"Archit - Projekt","country":"Austria","countryCode":"AT","region":null,"locality":null,"website":null,"badge":"Climbing spot","stat":"Sport climbing","tags":[]}},{"type":"Feature","geometry":{"type":"Point","coordinates":[12.75911,47.52186]},"properties":{"id":"n13355152603","name":"Area 51","country":"Austria","countryCode":"AT","region":null,"locality":null,"website":null,"badge":"Climbing spot","stat":"Sport climbing","tags":[]}},{"type":"Feature","geometry":{"type":"Point","coordinates":[15.37897,47.33669]},"properties":{"id":"n12292771422","name":"Arena","country":"Austria","countryCode":"AT","region":null,"locality":null,"website":null,"badge":"Climbing spot","stat":"Climbing area","tags":[]}},{"type":"Feature","geometry":{"type":"Point","coordinates":[15.37897,47.33669]},"properties":{"id":"r18218858","name":"Arena","country":"Austria","countryCode":"AT","region":null,"locality":null,"website":null,"badge":"Climbing spot","stat":"Climbing area","tags":[]}},{"type":"Feature","geometry":{"type":"Point","coordinates":[10.82273,47.31655]},"properties":{"id":"n13415605001","name":"Ares","country":"Austria","countryCode":"AT","region":null,"locality":null,"website":null,"badge":"Climbing spot","stat":"Sport climbing","tags":[]}},{"type":"Feature","geometry":{"type":"Point","coordinates":[12.81165,46.76453]},"properties":{"id":"r18684945","name":"Ari-Schübel-Steig","country":"Austria","countryCode":"AT","region":null,"locality":null,"website":null,"badge":"Climbing spot","stat":"Climbing area","tags":[]}},{"type":"Feature","geometry":{"type":"Point","coordinates":[10.82309,47.31634]},"properties":{"id":"n13415548976","name":"Ariachne","country":"Austria","countryCode":"AT","region":null,"locality":null,"website":null,"badge":"Climbing spot","stat":"Sport climbing","tags":[]}},{"type":"Feature","geometry":{"type":"Point","coordinates":[11.02297,46.95247]},"properties":{"id":"n13394534074","name":"Arielle","country":"Austria","countryCode":"AT","region":null,"locality":null,"website":null,"badge":"Climbing spot","stat":"Sport climbing","tags":[]}},{"type":"Feature","geometry":{"type":"Point","coordinates":[12.768,47.51388]},"properties":{"id":"n13352996346","name":"Armageddon","country":"Austria","countryCode":"AT","region":null,"locality":null,"website":null,"badge":"Climbing spot","stat":"Sport climbing","tags":[]}},{"type":"Feature","geometry":{"type":"Point","coordinates":[10.90063,47.17873]},"properties":{"id":"w296901048","name":"Armelen","country":"Austria","countryCode":"AT","region":null,"locality":null,"website":null,"badge":"Climbing spot","stat":"Sport climbing","tags":["Sport","Graded routes"]}},{"type":"Feature","geometry":{"type":"Point","coordinates":[16.01552,47.74802]},"properties":{"id":"n1472579078","name":"Armer Sünder","country":"Austria","countryCode":"AT","region":null,"locality":null,"website":null,"badge":"Climbing spot","stat":"Climbing area","tags":[]}},{"type":"Feature","geometry":{"type":"Point","coordinates":[16.01552,47.74802]},"properties":{"id":"r18218485","name":"Armer Sünder","country":"Austria","countryCode":"AT","region":null,"locality":null,"website":null,"badge":"Climbing spot","stat":"Climbing area","tags":[]}},{"type":"Feature","geometry":{"type":"Point","coordinates":[16.06628,48.02995]},"properties":{"id":"n12292461046","name":"Arnsteinhöhle","country":"Austria","countryCode":"AT","region":null,"locality":null,"website":null,"badge":"Climbing spot","stat":"Climbing area","tags":[]}},{"type":"Feature","geometry":{"type":"Point","coordinates":[16.06628,48.02995]},"properties":{"id":"r18217440","name":"Arnsteinhöhle","country":"Austria","countryCode":"AT","region":null,"locality":null,"website":null,"badge":"Climbing spot","stat":"Climbing area","tags":[]}},{"type":"Feature","geometry":{"type":"Point","coordinates":[16.06469,48.02827]},"properties":{"id":"n12292494723","name":"Arnsteinkamm","country":"Austria","countryCode":"AT","region":null,"locality":null,"website":null,"badge":"Climbing spot","stat":"Climbing area","tags":[]}},{"type":"Feature","geometry":{"type":"Point","coordinates":[16.06469,48.02827]},"properties":{"id":"r18217445","name":"Arnsteinkamm","country":"Austria","countryCode":"AT","region":null,"locality":null,"website":null,"badge":"Climbing spot","stat":"Climbing area","tags":[]}},{"type":"Feature","geometry":{"type":"Point","coordinates":[16.11974,48.0192]},"properties":{"id":"n12292019741","name":"Arsch der Welt","country":"Austria","countryCode":"AT","region":null,"locality":null,"website":null,"badge":"Climbing spot","stat":"Climbing area","tags":[]}},{"type":"Feature","geometry":{"type":"Point","coordinates":[16.11974,48.0192]},"properties":{"id":"r18216552","name":"Arsch der Welt","country":"Austria","countryCode":"AT","region":null,"locality":null,"website":null,"badge":"Climbing spot","stat":"Climbing area","tags":[]}},{"type":"Feature","geometry":{"type":"Point","coordinates":[12.36138,47.54516]},"properties":{"id":"n13426630026","name":"Art Rock","country":"Austria","countryCode":"AT","region":null,"locality":null,"website":null,"badge":"Climbing spot","stat":"Sport climbing","tags":[]}},{"type":"Feature","geometry":{"type":"Point","coordinates":[12.60481,47.50599]},"properties":{"id":"n13361094856","name":"AS","country":"Austria","countryCode":"AT","region":null,"locality":null,"website":null,"badge":"Climbing spot","stat":"Sport climbing","tags":[]}},{"type":"Feature","geometry":{"type":"Point","coordinates":[12.36081,47.54494]},"properties":{"id":"n13426341438","name":"As Stoamandl","country":"Austria","countryCode":"AT","region":null,"locality":null,"website":null,"badge":"Climbing spot","stat":"Sport climbing","tags":[]}},{"type":"Feature","geometry":{"type":"Point","coordinates":[10.99536,47.01766]},"properties":{"id":"r19993990","name":"Aschbach","country":"Austria","countryCode":"AT","region":null,"locality":null,"website":"https://www.climbers-paradise.com/en/climbing-regions/oetztal/sport-climbing/location/aschbach/","badge":"Climbing spot","stat":"Natural crag","tags":["Schist"]}},{"type":"Feature","geometry":{"type":"Point","coordinates":[10.69638,47.2076]},"properties":{"id":"n13415619195","name":"Assasin","country":"Austria","countryCode":"AT","region":null,"locality":null,"website":null,"badge":"Climbing spot","stat":"Sport climbing","tags":[]}},{"type":"Feature","geometry":{"type":"Point","coordinates":[10.69636,47.2076]},"properties":{"id":"n13415619196","name":"Assasin in Orakel","country":"Austria","countryCode":"AT","region":null,"locality":null,"website":null,"badge":"Climbing spot","stat":"Sport climbing","tags":[]}},{"type":"Feature","geometry":{"type":"Point","coordinates":[16.27202,48.08052]},"properties":{"id":"n12754062505","name":"Asterix","country":"Austria","countryCode":"AT","region":null,"locality":null,"website":null,"badge":"Climbing spot","stat":"Sport climbing","tags":[]}},{"type":"Feature","geometry":{"type":"Point","coordinates":[9.84011,47.14587]},"properties":{"id":"n13100841175","name":"Asterix","country":"Austria","countryCode":"AT","region":null,"locality":null,"website":null,"badge":"Climbing spot","stat":"Sport climbing","tags":["Sport"]}},{"type":"Feature","geometry":{"type":"Point","coordinates":[10.95545,47.06309]},"properties":{"id":"r19993831","name":"Astlehn","country":"Austria","countryCode":"AT","region":null,"locality":null,"website":"https://www.climbers-paradise.com/en/climbing-regions/oetztal/sport-climbing/location/laengenfeld-astlehn/","badge":"Climbing spot","stat":"Natural crag","tags":["Schist"]}},{"type":"Feature","geometry":{"type":"Point","coordinates":[10.84603,47.31593]},"properties":{"id":"n13415577642","name":"Atemlos","country":"Austria","countryCode":"AT","region":null,"locality":null,"website":null,"badge":"Climbing spot","stat":"Sport climbing","tags":[]}},{"type":"Feature","geometry":{"type":"Point","coordinates":[12.35699,47.54472]},"properties":{"id":"n13426261615","name":"Atemlos","country":"Austria","countryCode":"AT","region":null,"locality":null,"website":null,"badge":"Climbing spot","stat":"Sport climbing","tags":[]}},{"type":"Feature","geometry":{"type":"Point","coordinates":[10.82271,47.31656]},"properties":{"id":"n13415605002","name":"Athene","country":"Austria","countryCode":"AT","region":null,"locality":null,"website":null,"badge":"Climbing spot","stat":"Sport climbing","tags":[]}},{"type":"Feature","geometry":{"type":"Point","coordinates":[15.53003,48.47766]},"properties":{"id":"w163561153","name":"Athletenstein","country":"Austria","countryCode":"AT","region":null,"locality":null,"website":null,"badge":"Climbing spot","stat":"Natural crag","tags":[]}},{"type":"Feature","geometry":{"type":"Point","coordinates":[10.91635,47.16708]},"properties":{"id":"n13388774449","name":"Atlantis","country":"Austria","countryCode":"AT","region":null,"locality":null,"website":null,"badge":"Climbing spot","stat":"Sport climbing","tags":[]}},{"type":"Feature","geometry":{"type":"Point","coordinates":[15.76186,47.75343]},"properties":{"id":"r18166298","name":"Atlantis","country":"Austria","countryCode":"AT","region":null,"locality":null,"website":null,"badge":"Climbing spot","stat":"Climbing area","tags":[]}},{"type":"Feature","geometry":{"type":"Point","coordinates":[10.91456,47.22272]},"properties":{"id":"n13450225365","name":"Atlantis Eisfall","country":"Austria","countryCode":"AT","region":null,"locality":null,"website":null,"badge":"Climbing spot","stat":"Climbing area","tags":[]}},{"type":"Feature","geometry":{"type":"Point","coordinates":[12.77902,47.50803]},"properties":{"id":"n13355685171","name":"Au so rauh!","country":"Austria","countryCode":"AT","region":null,"locality":null,"website":null,"badge":"Climbing spot","stat":"Sport climbing","tags":[]}},{"type":"Feature","geometry":{"type":"Point","coordinates":[10.1481,47.34437]},"properties":{"id":"w1451436076","name":"Auenland","country":"Austria","countryCode":"AT","region":null,"locality":null,"website":null,"badge":"Climbing spot","stat":"Sport climbing","tags":["Sport","Graded routes"]}},{"type":"Feature","geometry":{"type":"Point","coordinates":[16.03655,48.00787]},"properties":{"id":"r18166516","name":"Auenland","country":"Austria","countryCode":"AT","region":null,"locality":null,"website":null,"badge":"Climbing spot","stat":"Climbing area","tags":[]}},{"type":"Feature","geometry":{"type":"Point","coordinates":[10.20336,47.26163]},"properties":{"id":"n13150969021","name":"Auf Adlers Schwingen","country":"Austria","countryCode":"AT","region":null,"locality":null,"website":null,"badge":"Climbing spot","stat":"Sport climbing","tags":["Sport"]}},{"type":"Feature","geometry":{"type":"Point","coordinates":[10.56305,47.53469]},"properties":{"id":"n13415253440","name":"Auf alten Wegen","country":"Austria","countryCode":"AT","region":null,"locality":null,"website":null,"badge":"Climbing spot","stat":"Sport climbing","tags":[]}},{"type":"Feature","geometry":{"type":"Point","coordinates":[12.32242,47.55192]},"properties":{"id":"n13442662107","name":"Auf der Pirsch","country":"Austria","countryCode":"AT","region":null,"locality":null,"website":null,"badge":"Climbing spot","stat":"Sport climbing","tags":[]}},{"type":"Feature","geometry":{"type":"Point","coordinates":[15.32097,48.56696]},"properties":{"id":"n12803710597","name":"Auf geht's","country":"Austria","countryCode":"AT","region":null,"locality":null,"website":null,"badge":"Climbing spot","stat":"Sport climbing","tags":[]}},{"type":"Feature","geometry":{"type":"Point","coordinates":[10.56299,47.53469]},"properties":{"id":"n13415253441","name":"Auf neuen Wegen","country":"Austria","countryCode":"AT","region":null,"locality":null,"website":null,"badge":"Climbing spot","stat":"Sport climbing","tags":[]}},{"type":"Feature","geometry":{"type":"Point","coordinates":[10.62112,47.49929]},"properties":{"id":"n2889584212","name":"Auf rauen Wegen zu den Sternen","country":"Austria","countryCode":"AT","region":null,"locality":null,"website":null,"badge":"Climbing spot","stat":"Climbing area","tags":[]}},{"type":"Feature","geometry":{"type":"Point","coordinates":[10.84295,47.31809]},"properties":{"id":"n13415532890","name":"Aufreiser","country":"Austria","countryCode":"AT","region":null,"locality":null,"website":null,"badge":"Climbing spot","stat":"Sport climbing","tags":[]}},{"type":"Feature","geometry":{"type":"Point","coordinates":[12.35821,47.54476]},"properties":{"id":"n13426261657","name":"Aufziehvogel","country":"Austria","countryCode":"AT","region":null,"locality":null,"website":null,"badge":"Climbing spot","stat":"Sport climbing","tags":[]}},{"type":"Feature","geometry":{"type":"Point","coordinates":[12.1866,47.23288]},"properties":{"id":"n12728405528","name":"Augustwarte","country":"Austria","countryCode":"AT","region":null,"locality":null,"website":null,"badge":"Climbing spot","stat":"Climbing area","tags":[]}},{"type":"Feature","geometry":{"type":"Point","coordinates":[10.94718,47.10957]},"properties":{"id":"w317952238","name":"Auplatte","country":"Austria","countryCode":"AT","region":null,"locality":null,"website":null,"badge":"Climbing spot","stat":"Sport climbing","tags":["Sport","Granite"]}},{"type":"Feature","geometry":{"type":"Point","coordinates":[13.6179,47.83325]},"properties":{"id":"w743429154","name":"Aurachkarplatten","country":"Austria","countryCode":"AT","region":null,"locality":null,"website":null,"badge":"Climbing spot","stat":"Sport climbing","tags":["Sport","Multipitch","Limestone"]}},{"type":"Feature","geometry":{"type":"Point","coordinates":[13.6179,47.83325]},"properties":{"id":"r18232649","name":"Aurachkarplatten","country":"Austria","countryCode":"AT","region":null,"locality":null,"website":null,"badge":"Climbing spot","stat":"Climbing area","tags":[]}},{"type":"Feature","geometry":{"type":"Point","coordinates":[12.76799,47.51353]},"properties":{"id":"n13352996359","name":"Aurora Bo(h)realis","country":"Austria","countryCode":"AT","region":null,"locality":null,"website":null,"badge":"Climbing spot","stat":"Sport climbing","tags":[]}},{"type":"Feature","geometry":{"type":"Point","coordinates":[9.75139,47.48746]},"properties":{"id":"w1496712033","name":"Aus der Backstube","country":"Austria","countryCode":"AT","region":null,"locality":null,"website":null,"badge":"Climbing spot","stat":"Bouldering","tags":["Boulder"]}},{"type":"Feature","geometry":{"type":"Point","coordinates":[12.14967,47.59268]},"properties":{"id":"n12980413116","name":"Ausstieg","country":"Austria","countryCode":"AT","region":null,"locality":null,"website":null,"badge":"Climbing spot","stat":"Sport climbing","tags":[]}},{"type":"Feature","geometry":{"type":"Point","coordinates":[13.15213,47.26259]},"properties":{"id":"n13119202203","name":"Ausstieg Für Rosi","country":"Austria","countryCode":"AT","region":null,"locality":null,"website":null,"badge":"Climbing spot","stat":"Climbing area","tags":[]}},{"type":"Feature","geometry":{"type":"Point","coordinates":[15.06431,46.83582]},"properties":{"id":"w704437174","name":"Ausstieg Waldgeisterweg Sektion D","country":"Austria","countryCode":"AT","region":null,"locality":null,"website":null,"badge":"Climbing spot","stat":"Climbing area","tags":["Multipitch"]}},{"type":"Feature","geometry":{"type":"Point","coordinates":[15.12257,47.59673]},"properties":{"id":"r18166786","name":"Ausweichkogel S-Wand","country":"Austria","countryCode":"AT","region":null,"locality":null,"website":null,"badge":"Climbing spot","stat":"Climbing area","tags":[]}},{"type":"Feature","geometry":{"type":"Point","coordinates":[15.1214,47.59702]},"properties":{"id":"n8996942988","name":"Ausweichkogel Westwand","country":"Austria","countryCode":"AT","region":null,"locality":null,"website":"https://www.bergsteigen.com/touren/klettergarten/ausweichkogel-westwand-hochschwab/","badge":"Climbing spot","stat":"Climbing area","tags":["Graded routes"]}},{"type":"Feature","geometry":{"type":"Point","coordinates":[15.1214,47.59702]},"properties":{"id":"r18165261","name":"Ausweichkogel Westwand","country":"Austria","countryCode":"AT","region":null,"locality":null,"website":null,"badge":"Climbing spot","stat":"Climbing area","tags":[]}},{"type":"Feature","geometry":{"type":"Point","coordinates":[10.95166,47.07529]},"properties":{"id":"n13397173551","name":"Autobahn","country":"Austria","countryCode":"AT","region":null,"locality":null,"website":null,"badge":"Climbing spot","stat":"Sport climbing","tags":[]}},{"type":"Feature","geometry":{"type":"Point","coordinates":[16.06198,47.83811]},"properties":{"id":"n11158594455","name":"Autoput","country":"Austria","countryCode":"AT","region":null,"locality":null,"website":null,"badge":"Climbing spot","stat":"Sport climbing","tags":[]}},{"type":"Feature","geometry":{"type":"Point","coordinates":[10.84269,47.31802]},"properties":{"id":"n13415532887","name":"Autupete he","country":"Austria","countryCode":"AT","region":null,"locality":null,"website":null,"badge":"Climbing spot","stat":"Sport climbing","tags":[]}},{"type":"Feature","geometry":{"type":"Point","coordinates":[15.66437,48.6563]},"properties":{"id":"w687907791","name":"AV Klettergarten","country":"Austria","countryCode":"AT","region":null,"locality":null,"website":null,"badge":"Climbing spot","stat":"Climbing area","tags":[]}},{"type":"Feature","geometry":{"type":"Point","coordinates":[15.66437,48.6563]},"properties":{"id":"r18229781","name":"AV Klettergarten","country":"Austria","countryCode":"AT","region":null,"locality":null,"website":null,"badge":"Climbing spot","stat":"Climbing area","tags":[]}},{"type":"Feature","geometry":{"type":"Point","coordinates":[11.28013,47.26787]},"properties":{"id":"w693588875","name":"AV-Klettergarten","country":"Austria","countryCode":"AT","region":null,"locality":null,"website":"https://www.climbers-paradise.com/en/climbing-regions/innsbruck-region/sport-climbing/location/martinswand-oeav-klettergarten","badge":"Climbing spot","stat":"Sport climbing","tags":["Sport","Limestone","Graded routes"]}},{"type":"Feature","geometry":{"type":"Point","coordinates":[9.9213,47.14679]},"properties":{"id":"n13156867427","name":"Avatar","country":"Austria","countryCode":"AT","region":null,"locality":null,"website":null,"badge":"Climbing spot","stat":"Sport climbing","tags":["Sport"]}},{"type":"Feature","geometry":{"type":"Point","coordinates":[12.75907,47.52199]},"properties":{"id":"n13355143090","name":"Avatar","country":"Austria","countryCode":"AT","region":null,"locality":null,"website":null,"badge":"Climbing spot","stat":"Sport climbing","tags":[]}},{"type":"Feature","geometry":{"type":"Point","coordinates":[9.78299,47.17678]},"properties":{"id":"n13320182055","name":"b","country":"Austria","countryCode":"AT","region":null,"locality":null,"website":null,"badge":"Climbing spot","stat":"Sport climbing","tags":["Sport"]}},{"type":"Feature","geometry":{"type":"Point","coordinates":[12.77005,47.53328]},"properties":{"id":"n13361073480","name":"B.S. 52","country":"Austria","countryCode":"AT","region":null,"locality":null,"website":null,"badge":"Climbing spot","stat":"Sport climbing","tags":[]}},{"type":"Feature","geometry":{"type":"Point","coordinates":[12.76926,47.53322]},"properties":{"id":"n13361073464","name":"B.S.54","country":"Austria","countryCode":"AT","region":null,"locality":null,"website":null,"badge":"Climbing spot","stat":"Sport climbing","tags":[]}},{"type":"Feature","geometry":{"type":"Point","coordinates":[11.25299,47.38931]},"properties":{"id":"n13352787202","name":"Baby","country":"Austria","countryCode":"AT","region":null,"locality":null,"website":null,"badge":"Climbing spot","stat":"Sport climbing","tags":[]}},{"type":"Feature","geometry":{"type":"Point","coordinates":[10.16822,47.14806]},"properties":{"id":"n6447303792","name":"Baby Fax","country":"Austria","countryCode":"AT","region":null,"locality":null,"website":null,"badge":"Climbing spot","stat":"Sport climbing","tags":[]}},{"type":"Feature","geometry":{"type":"Point","coordinates":[12.7702,47.53328]},"properties":{"id":"n13361073483","name":"Baby Jesus","country":"Austria","countryCode":"AT","region":null,"locality":null,"website":null,"badge":"Climbing spot","stat":"Sport climbing","tags":[]}},{"type":"Feature","geometry":{"type":"Point","coordinates":[10.78273,47.27442]},"properties":{"id":"n13415361151","name":"Babyleicht","country":"Austria","countryCode":"AT","region":null,"locality":null,"website":null,"badge":"Climbing spot","stat":"Sport climbing","tags":[]}},{"type":"Feature","geometry":{"type":"Point","coordinates":[12.76799,47.51396]},"properties":{"id":"n13352996343","name":"Babylon","country":"Austria","countryCode":"AT","region":null,"locality":null,"website":null,"badge":"Climbing spot","stat":"Sport climbing","tags":[]}},{"type":"Feature","geometry":{"type":"Point","coordinates":[10.91643,47.16698]},"properties":{"id":"n13388774464","name":"Babylon","country":"Austria","countryCode":"AT","region":null,"locality":null,"website":null,"badge":"Climbing spot","stat":"Sport climbing","tags":[]}},{"type":"Feature","geometry":{"type":"Point","coordinates":[12.77854,47.50807]},"properties":{"id":"n13355685161","name":"Babyphone","country":"Austria","countryCode":"AT","region":null,"locality":null,"website":null,"badge":"Climbing spot","stat":"Sport climbing","tags":[]}},{"type":"Feature","geometry":{"type":"Point","coordinates":[16.00525,47.80882]},"properties":{"id":"n12281792001","name":"Babywand","country":"Austria","countryCode":"AT","region":null,"locality":null,"website":null,"badge":"Climbing spot","stat":"Climbing area","tags":[]}},{"type":"Feature","geometry":{"type":"Point","coordinates":[16.00824,47.80976]},"properties":{"id":"r18200327","name":"Babywand","country":"Austria","countryCode":"AT","region":null,"locality":null,"website":null,"badge":"Climbing spot","stat":"Climbing area","tags":[]}},{"type":"Feature","geometry":{"type":"Point","coordinates":[10.45898,47.12183]},"properties":{"id":"n13450323065","name":"Bachfall Eisfall","country":"Austria","countryCode":"AT","region":null,"locality":null,"website":null,"badge":"Climbing spot","stat":"Climbing area","tags":[]}},{"type":"Feature","geometry":{"type":"Point","coordinates":[16.15188,47.83855]},"properties":{"id":"n12301570558","name":"Bad Fischau Kinderklettergarten","country":"Austria","countryCode":"AT","region":null,"locality":null,"website":null,"badge":"Climbing spot","stat":"Climbing area","tags":[]}},{"type":"Feature","geometry":{"type":"Point","coordinates":[16.15188,47.83855]},"properties":{"id":"r18233189","name":"Bad Fischau Kinderklettergarten","country":"Austria","countryCode":"AT","region":null,"locality":null,"website":null,"badge":"Climbing spot","stat":"Climbing area","tags":[]}},{"type":"Feature","geometry":{"type":"Point","coordinates":[16.18767,48.0199]},"properties":{"id":"w81758960","name":"Badener Kletterschule","country":"Austria","countryCode":"AT","region":null,"locality":null,"website":null,"badge":"Climbing spot","stat":"Natural crag","tags":[]}},{"type":"Feature","geometry":{"type":"Point","coordinates":[16.18915,48.01953]},"properties":{"id":"w81758961","name":"Badener Kletterschule","country":"Austria","countryCode":"AT","region":null,"locality":null,"website":null,"badge":"Climbing spot","stat":"Natural crag","tags":[]}},{"type":"Feature","geometry":{"type":"Point","coordinates":[16.18991,48.01929]},"properties":{"id":"w81758962","name":"Badener Kletterschule","country":"Austria","countryCode":"AT","region":null,"locality":null,"website":null,"badge":"Climbing spot","stat":"Natural crag","tags":[]}},{"type":"Feature","geometry":{"type":"Point","coordinates":[16.19021,48.01955]},"properties":{"id":"w81758963","name":"Badener Kletterschule","country":"Austria","countryCode":"AT","region":null,"locality":null,"website":null,"badge":"Climbing spot","stat":"Natural crag","tags":[]}},{"type":"Feature","geometry":{"type":"Point","coordinates":[16.18368,48.00449]},"properties":{"id":"r18166836","name":"Badener Turm","country":"Austria","countryCode":"AT","region":null,"locality":null,"website":null,"badge":"Climbing spot","stat":"Climbing area","tags":[]}},{"type":"Feature","geometry":{"type":"Point","coordinates":[15.34198,47.22393]},"properties":{"id":"w383485756","name":"Badlwand","country":"Austria","countryCode":"AT","region":null,"locality":null,"website":null,"badge":"Climbing spot","stat":"Natural crag","tags":[]}},{"type":"Feature","geometry":{"type":"Point","coordinates":[15.34002,47.22218]},"properties":{"id":"w1015635990","name":"Badlwand","country":"Austria","countryCode":"AT","region":null,"locality":null,"website":null,"badge":"Climbing spot","stat":"Natural crag","tags":[]}},{"type":"Feature","geometry":{"type":"Point","coordinates":[12.23307,47.64801]},"properties":{"id":"n13351447653","name":"Baggerweg","country":"Austria","countryCode":"AT","region":null,"locality":null,"website":null,"badge":"Climbing spot","stat":"Sport climbing","tags":[]}},{"type":"Feature","geometry":{"type":"Point","coordinates":[12.60459,47.50596]},"properties":{"id":"n13361094844","name":"Bagheera","country":"Austria","countryCode":"AT","region":null,"locality":null,"website":null,"badge":"Climbing spot","stat":"Sport climbing","tags":[]}},{"type":"Feature","geometry":{"type":"Point","coordinates":[16.24377,48.08203]},"properties":{"id":"r18166688","name":"Bagua","country":"Austria","countryCode":"AT","region":null,"locality":null,"website":null,"badge":"Climbing spot","stat":"Climbing area","tags":[]}},{"type":"Feature","geometry":{"type":"Point","coordinates":[10.95132,47.07577]},"properties":{"id":"n13397207484","name":"Bakerstreet","country":"Austria","countryCode":"AT","region":null,"locality":null,"website":null,"badge":"Climbing spot","stat":"Sport climbing","tags":[]}},{"type":"Feature","geometry":{"type":"Point","coordinates":[10.86979,46.95793]},"properties":{"id":"n13464263340","name":"Balkon","country":"Austria","countryCode":"AT","region":null,"locality":null,"website":null,"badge":"Climbing spot","stat":"Sport climbing","tags":["Sport","Trad"]}},{"type":"Feature","geometry":{"type":"Point","coordinates":[12.60464,47.50597]},"properties":{"id":"n13361094846","name":"Baloo","country":"Austria","countryCode":"AT","region":null,"locality":null,"website":null,"badge":"Climbing spot","stat":"Sport climbing","tags":[]}},{"type":"Feature","geometry":{"type":"Point","coordinates":[10.9514,47.07571]},"properties":{"id":"n13397207473","name":"Balu","country":"Austria","countryCode":"AT","region":null,"locality":null,"website":null,"badge":"Climbing spot","stat":"Sport climbing","tags":[]}},{"type":"Feature","geometry":{"type":"Point","coordinates":[14.07249,47.70993]},"properties":{"id":"n12739793117","name":"Banane","country":"Austria","countryCode":"AT","region":null,"locality":null,"website":null,"badge":"Climbing spot","stat":"Sport climbing","tags":[]}},{"type":"Feature","geometry":{"type":"Point","coordinates":[10.91645,47.16671]},"properties":{"id":"n13388774498","name":"Bananenpfeiler 1. SL","country":"Austria","countryCode":"AT","region":null,"locality":null,"website":null,"badge":"Climbing spot","stat":"Sport climbing","tags":["Multipitch"]}},{"type":"Feature","geometry":{"type":"Point","coordinates":[10.88239,47.20723]},"properties":{"id":"n13394772002","name":"Bandit","country":"Austria","countryCode":"AT","region":null,"locality":null,"website":null,"badge":"Climbing spot","stat":"Sport climbing","tags":[]}},{"type":"Feature","geometry":{"type":"Point","coordinates":[10.85238,47.2171]},"properties":{"id":"n13394695085","name":"Bandltanz","country":"Austria","countryCode":"AT","region":null,"locality":null,"website":null,"badge":"Climbing spot","stat":"Sport climbing","tags":[]}},{"type":"Feature","geometry":{"type":"Point","coordinates":[11.05209,47.08658]},"properties":{"id":"n13388748779","name":"Banff","country":"Austria","countryCode":"AT","region":null,"locality":null,"website":null,"badge":"Climbing spot","stat":"Sport climbing","tags":[]}},{"type":"Feature","geometry":{"type":"Point","coordinates":[11.2531,47.38934]},"properties":{"id":"n13352787206","name":"Bang","country":"Austria","countryCode":"AT","region":null,"locality":null,"website":null,"badge":"Climbing spot","stat":"Sport climbing","tags":[]}},{"type":"Feature","geometry":{"type":"Point","coordinates":[12.76488,47.5088]},"properties":{"id":"r19979360","name":"Barbarenland","country":"Austria","countryCode":"AT","region":null,"locality":null,"website":"https://www.climbers-paradise.com/en/climbing-regions/steinberge/sport-climbing/location/barbarenland/","badge":"Climbing spot","stat":"Natural crag","tags":["Limestone"]}},{"type":"Feature","geometry":{"type":"Point","coordinates":[10.20304,47.26149]},"properties":{"id":"n13147968682","name":"Barbarossa","country":"Austria","countryCode":"AT","region":null,"locality":null,"website":null,"badge":"Climbing spot","stat":"Sport climbing","tags":["Sport"]}},{"type":"Feature","geometry":{"type":"Point","coordinates":[12.36129,47.54509]},"properties":{"id":"n13426630012","name":"Barracuda","country":"Austria","countryCode":"AT","region":null,"locality":null,"website":null,"badge":"Climbing spot","stat":"Sport climbing","tags":[]}},{"type":"Feature","geometry":{"type":"Point","coordinates":[15.73315,47.71879]},"properties":{"id":"n12947211032","name":"Bartlrisse","country":"Austria","countryCode":"AT","region":null,"locality":null,"website":null,"badge":"Climbing spot","stat":"Sport climbing","tags":[]}},{"type":"Feature","geometry":{"type":"Point","coordinates":[11.45221,47.12068]},"properties":{"id":"n11094128584","name":"Basecamp Bergsport und Kletterhalle","country":"Austria","countryCode":"AT","region":null,"locality":null,"website":null,"badge":"Climbing spot","stat":"Indoor climbing gym","tags":["Indoor"]}},{"type":"Feature","geometry":{"type":"Point","coordinates":[11.14784,47.377]},"properties":{"id":"n13352788851","name":"Basejump","country":"Austria","countryCode":"AT","region":null,"locality":null,"website":null,"badge":"Climbing spot","stat":"Sport climbing","tags":[]}},{"type":"Feature","geometry":{"type":"Point","coordinates":[12.76493,47.50877]},"properties":{"id":"n13388643743","name":"Batman","country":"Austria","countryCode":"AT","region":null,"locality":null,"website":null,"badge":"Climbing spot","stat":"Sport climbing","tags":[]}},{"type":"Feature","geometry":{"type":"Point","coordinates":[12.36099,47.54498]},"properties":{"id":"n13426341453","name":"Batman","country":"Austria","countryCode":"AT","region":null,"locality":null,"website":null,"badge":"Climbing spot","stat":"Sport climbing","tags":[]}},{"type":"Feature","geometry":{"type":"Point","coordinates":[10.84583,47.31595]},"properties":{"id":"n13415577626","name":"Battle in Heaven","country":"Austria","countryCode":"AT","region":null,"locality":null,"website":null,"badge":"Climbing spot","stat":"Sport climbing","tags":[]}},{"type":"Feature","geometry":{"type":"Point","coordinates":[12.1943,47.53184]},"properties":{"id":"n13442406150","name":"Bauern5er","country":"Austria","countryCode":"AT","region":null,"locality":null,"website":null,"badge":"Climbing spot","stat":"Sport climbing","tags":[]}},{"type":"Feature","geometry":{"type":"Point","coordinates":[12.19443,47.53182]},"properties":{"id":"n13442406157","name":"Bauernsau","country":"Austria","countryCode":"AT","region":null,"locality":null,"website":null,"badge":"Climbing spot","stat":"Sport climbing","tags":[]}},{"type":"Feature","geometry":{"type":"Point","coordinates":[12.19448,47.53186]},"properties":{"id":"r20039859","name":"Bauernwandl","country":"Austria","countryCode":"AT","region":null,"locality":null,"website":null,"badge":"Climbing spot","stat":"Climbing area","tags":[]}},{"type":"Feature","geometry":{"type":"Point","coordinates":[12.23296,47.64802]},"properties":{"id":"n13351447649","name":"Bauhoframpe","country":"Austria","countryCode":"AT","region":null,"locality":null,"website":null,"badge":"Climbing spot","stat":"Sport climbing","tags":[]}},{"type":"Feature","geometry":{"type":"Point","coordinates":[10.95036,47.07636]},"properties":{"id":"n13397242733","name":"Baum","country":"Austria","countryCode":"AT","region":null,"locality":null,"website":null,"badge":"Climbing spot","stat":"Sport climbing","tags":[]}},{"type":"Feature","geometry":{"type":"Point","coordinates":[15.14519,47.61689]},"properties":{"id":"n12253255600","name":"Baumgartnerweg","country":"Austria","countryCode":"AT","region":null,"locality":null,"website":null,"badge":"Climbing spot","stat":"Sport climbing","tags":[]}},{"type":"Feature","geometry":{"type":"Point","coordinates":[10.95019,47.07635]},"properties":{"id":"n13397242743","name":"Baumriese","country":"Austria","countryCode":"AT","region":null,"locality":null,"website":null,"badge":"Climbing spot","stat":"Sport climbing","tags":[]}},{"type":"Feature","geometry":{"type":"Point","coordinates":[10.95014,47.07635]},"properties":{"id":"r19993519","name":"Baumriese","country":"Austria","countryCode":"AT","region":null,"locality":null,"website":null,"badge":"Climbing spot","stat":"Climbing area","tags":[]}},{"type":"Feature","geometry":{"type":"Point","coordinates":[12.35788,47.54477]},"properties":{"id":"n13426261647","name":"Be hot, stay cool","country":"Austria","countryCode":"AT","region":null,"locality":null,"website":null,"badge":"Climbing spot","stat":"Sport climbing","tags":[]}},{"type":"Feature","geometry":{"type":"Point","coordinates":[15.32105,48.56694]},"properties":{"id":"n12803713001","name":"Becharovska","country":"Austria","countryCode":"AT","region":null,"locality":null,"website":null,"badge":"Climbing spot","stat":"Sport climbing","tags":[]}},{"type":"Feature","geometry":{"type":"Point","coordinates":[12.76175,47.51998]},"properties":{"id":"n13355152634","name":"Bedunzi","country":"Austria","countryCode":"AT","region":null,"locality":null,"website":null,"badge":"Climbing spot","stat":"Sport climbing","tags":[]}},{"type":"Feature","geometry":{"type":"Point","coordinates":[16.19566,48.01581]},"properties":{"id":"r18181430","name":"Beethovenwand","country":"Austria","countryCode":"AT","region":null,"locality":null,"website":null,"badge":"Climbing spot","stat":"Climbing area","tags":[]}},{"type":"Feature","geometry":{"type":"Point","coordinates":[12.79596,46.76253]},"properties":{"id":"n9930164583","name":"Beginners Park - Karlsbaderhütte","country":"Austria","countryCode":"AT","region":null,"locality":null,"website":null,"badge":"Climbing spot","stat":"Natural crag","tags":[]}},{"type":"Feature","geometry":{"type":"Point","coordinates":[12.79596,46.76253]},"properties":{"id":"r18684878","name":"Beginners Park - Karlsbaderhütte","country":"Austria","countryCode":"AT","region":null,"locality":null,"website":null,"badge":"Climbing spot","stat":"Climbing area","tags":[]}},{"type":"Feature","geometry":{"type":"Point","coordinates":[15.11358,47.60418]},"properties":{"id":"n12253163750","name":"Beilstein Ostkante","country":"Austria","countryCode":"AT","region":null,"locality":null,"website":"https://www.bergsteigen.com/touren/klettern/beilstein-ostkante/","badge":"Climbing spot","stat":"Sport climbing","tags":[]}},{"type":"Feature","geometry":{"type":"Point","coordinates":[15.11345,47.60151]},"properties":{"id":"r18165705","name":"Beilstein Ostkante","country":"Austria","countryCode":"AT","region":null,"locality":null,"website":null,"badge":"Climbing spot","stat":"Climbing area","tags":[]}},{"type":"Feature","geometry":{"type":"Point","coordinates":[15.94971,47.36051]},"properties":{"id":"n4209176576","name":"Beistein","country":"Austria","countryCode":"AT","region":null,"locality":null,"website":null,"badge":"Climbing spot","stat":"Climbing area","tags":[]}},{"type":"Feature","geometry":{"type":"Point","coordinates":[12.36059,47.54493]},"properties":{"id":"n13426341420","name":"Belay Bunny","country":"Austria","countryCode":"AT","region":null,"locality":null,"website":null,"badge":"Climbing spot","stat":"Sport climbing","tags":[]}},{"type":"Feature","geometry":{"type":"Point","coordinates":[10.09014,47.17003]},"properties":{"id":"w1007439172","name":"Bellavista","country":"Austria","countryCode":"AT","region":null,"locality":null,"website":"https://www.ravensburgerhuette.at/aktivitaeten/klettern/","badge":"Climbing spot","stat":"Sport climbing","tags":["Sport","Graded routes"]}},{"type":"Feature","geometry":{"type":"Point","coordinates":[12.36096,47.54497]},"properties":{"id":"n13426341450","name":"Beng","country":"Austria","countryCode":"AT","region":null,"locality":null,"website":null,"badge":"Climbing spot","stat":"Sport climbing","tags":[]}},{"type":"Feature","geometry":{"type":"Point","coordinates":[9.64013,47.32182]},"properties":{"id":"n13462977416","name":"Benissimo & Andrea","country":"Austria","countryCode":"AT","region":null,"locality":null,"website":null,"badge":"Climbing spot","stat":"Sport climbing","tags":["Sport"]}},{"type":"Feature","geometry":{"type":"Point","coordinates":[11.02273,46.95255]},"properties":{"id":"n13394534068","name":"Benjamin Blümchen","country":"Austria","countryCode":"AT","region":null,"locality":null,"website":null,"badge":"Climbing spot","stat":"Sport climbing","tags":[]}},{"type":"Feature","geometry":{"type":"Point","coordinates":[13.13744,47.30905]},"properties":{"id":"n13074604481","name":"Bergfloh","country":"Austria","countryCode":"AT","region":null,"locality":null,"website":null,"badge":"Climbing spot","stat":"Sport climbing","tags":["Sport"]}},{"type":"Feature","geometry":{"type":"Point","coordinates":[13.39504,47.75838]},"properties":{"id":"n10106248033","name":"Bergführerkante klettern","country":"Austria","countryCode":"AT","region":null,"locality":null,"website":"https://www.bergsteigen.com/touren/klettern/bergfuehrerkante-falkenstein-wolfgangsee/","badge":"Climbing spot","stat":"Sport climbing","tags":["Sport"]}},{"type":"Feature","geometry":{"type":"Point","coordinates":[11.02261,46.95259]},"properties":{"id":"n13394534065","name":"Bergführerweg 1.SL (von drei)","country":"Austria","countryCode":"AT","region":null,"locality":null,"website":null,"badge":"Climbing spot","stat":"Sport climbing","tags":[]}},{"type":"Feature","geometry":{"type":"Point","coordinates":[10.86312,47.22075]},"properties":{"id":"n13397284481","name":"Berggeist","country":"Austria","countryCode":"AT","region":null,"locality":null,"website":null,"badge":"Climbing spot","stat":"Sport climbing","tags":[]}},{"type":"Feature","geometry":{"type":"Point","coordinates":[10.48257,47.04608]},"properties":{"id":"n13450196510","name":"Bergli Eisfall","country":"Austria","countryCode":"AT","region":null,"locality":null,"website":null,"badge":"Climbing spot","stat":"Climbing area","tags":[]}},{"type":"Feature","geometry":{"type":"Point","coordinates":[15.51779,48.40269]},"properties":{"id":"n12299462064","name":"Bergrettungsweg","country":"Austria","countryCode":"AT","region":null,"locality":null,"website":null,"badge":"Climbing spot","stat":"Sport climbing","tags":[]}},{"type":"Feature","geometry":{"type":"Point","coordinates":[11.06739,47.30328]},"properties":{"id":"w656551359","name":"Bergstation","country":"Austria","countryCode":"AT","region":null,"locality":"Telfs","website":"https://www.bergstation.tirol/","badge":"Climbing spot","stat":"Indoor climbing gym","tags":["Indoor"]}},{"type":"Feature","geometry":{"type":"Point","coordinates":[11.8136,47.10458]},"properties":{"id":"w620137542","name":"Bergstation - By The Way","country":"Austria","countryCode":"AT","region":null,"locality":null,"website":null,"badge":"Climbing spot","stat":"Natural crag","tags":[]}},{"type":"Feature","geometry":{"type":"Point","coordinates":[11.81477,47.10456]},"properties":{"id":"w620137544","name":"Bergstation - Leander","country":"Austria","countryCode":"AT","region":null,"locality":null,"website":null,"badge":"Climbing spot","stat":"Natural crag","tags":[]}},{"type":"Feature","geometry":{"type":"Point","coordinates":[11.81452,47.10518]},"properties":{"id":"w620137543","name":"Bergstation -Coque Au Vin","country":"Austria","countryCode":"AT","region":null,"locality":null,"website":null,"badge":"Climbing spot","stat":"Natural crag","tags":[]}},{"type":"Feature","geometry":{"type":"Point","coordinates":[11.25304,47.38932]},"properties":{"id":"n13352787204","name":"Berni","country":"Austria","countryCode":"AT","region":null,"locality":null,"website":null,"badge":"Climbing spot","stat":"Sport climbing","tags":[]}},{"type":"Feature","geometry":{"type":"Point","coordinates":[11.19545,47.01544]},"properties":{"id":"n13450196535","name":"Bese Hexe Eisfall","country":"Austria","countryCode":"AT","region":null,"locality":null,"website":null,"badge":"Climbing spot","stat":"Climbing area","tags":[]}},{"type":"Feature","geometry":{"type":"Point","coordinates":[9.77868,47.17907]},"properties":{"id":"n13317711075","name":"Betthupferl","country":"Austria","countryCode":"AT","region":null,"locality":null,"website":null,"badge":"Climbing spot","stat":"Sport climbing","tags":["Sport"]}},{"type":"Feature","geometry":{"type":"Point","coordinates":[10.94696,47.10951]},"properties":{"id":"n13397278547","name":"Betthupferl","country":"Austria","countryCode":"AT","region":null,"locality":null,"website":null,"badge":"Climbing spot","stat":"Sport climbing","tags":[]}},{"type":"Feature","geometry":{"type":"Point","coordinates":[15.52457,48.39671]},"properties":{"id":"n12304762748","name":"Bettinaturm","country":"Austria","countryCode":"AT","region":null,"locality":null,"website":null,"badge":"Climbing spot","stat":"Climbing area","tags":[]}},{"type":"Feature","geometry":{"type":"Point","coordinates":[15.52457,48.39671]},"properties":{"id":"r18238094","name":"Bettinaturm","country":"Austria","countryCode":"AT","region":null,"locality":null,"website":null,"badge":"Climbing spot","stat":"Climbing area","tags":[]}},{"type":"Feature","geometry":{"type":"Point","coordinates":[16.05383,47.8325]},"properties":{"id":"n7857266220","name":"Betty & Paul","country":"Austria","countryCode":"AT","region":null,"locality":null,"website":null,"badge":"Climbing spot","stat":"Sport climbing","tags":[]}},{"type":"Feature","geometry":{"type":"Point","coordinates":[10.87828,47.26213]},"properties":{"id":"n13397321812","name":"BettyGini","country":"Austria","countryCode":"AT","region":null,"locality":null,"website":null,"badge":"Climbing spot","stat":"Sport climbing","tags":[]}},{"type":"Feature","geometry":{"type":"Point","coordinates":[16.05373,47.83248]},"properties":{"id":"n7857266219","name":"Beuteösterreichersteig","country":"Austria","countryCode":"AT","region":null,"locality":null,"website":null,"badge":"Climbing spot","stat":"Sport climbing","tags":[]}},{"type":"Feature","geometry":{"type":"Point","coordinates":[13.20773,47.49966]},"properties":{"id":"n5633075601","name":"Biathlon","country":"Austria","countryCode":"AT","region":null,"locality":null,"website":null,"badge":"Climbing spot","stat":"Sport climbing","tags":[]}},{"type":"Feature","geometry":{"type":"Point","coordinates":[11.25312,47.38934]},"properties":{"id":"n13352787207","name":"Bibi","country":"Austria","countryCode":"AT","region":null,"locality":null,"website":null,"badge":"Climbing spot","stat":"Sport climbing","tags":[]}},{"type":"Feature","geometry":{"type":"Point","coordinates":[10.85443,47.06371]},"properties":{"id":"n13450196526","name":"Biedere Eisfall","country":"Austria","countryCode":"AT","region":null,"locality":null,"website":null,"badge":"Climbing spot","stat":"Climbing area","tags":[]}},{"type":"Feature","geometry":{"type":"Point","coordinates":[9.99864,47.12384]},"properties":{"id":"n13156854639","name":"Biene Maja","country":"Austria","countryCode":"AT","region":null,"locality":null,"website":null,"badge":"Climbing spot","stat":"Sport climbing","tags":["Sport"]}},{"type":"Feature","geometry":{"type":"Point","coordinates":[10.95022,47.07635]},"properties":{"id":"n13397242741","name":"Biene Maja","country":"Austria","countryCode":"AT","region":null,"locality":null,"website":null,"badge":"Climbing spot","stat":"Sport climbing","tags":[]}},{"type":"Feature","geometry":{"type":"Point","coordinates":[10.95137,47.07573]},"properties":{"id":"n13397207477","name":"Biene Maya","country":"Austria","countryCode":"AT","region":null,"locality":null,"website":null,"badge":"Climbing spot","stat":"Sport climbing","tags":[]}},{"type":"Feature","geometry":{"type":"Point","coordinates":[10.2029,47.26147]},"properties":{"id":"w1430354985","name":"Biene Maya","country":"Austria","countryCode":"AT","region":null,"locality":null,"website":null,"badge":"Climbing spot","stat":"Sport climbing","tags":["Sport"]}},{"type":"Feature","geometry":{"type":"Point","coordinates":[12.2329,47.64803]},"properties":{"id":"n13351447647","name":"Bienenflug","country":"Austria","countryCode":"AT","region":null,"locality":null,"website":null,"badge":"Climbing spot","stat":"Sport climbing","tags":[]}},{"type":"Feature","geometry":{"type":"Point","coordinates":[12.56405,47.55491]},"properties":{"id":"n13388603451","name":"Bienenstich","country":"Austria","countryCode":"AT","region":null,"locality":null,"website":null,"badge":"Climbing spot","stat":"Sport climbing","tags":[]}},{"type":"Feature","geometry":{"type":"Point","coordinates":[10.94704,47.10948]},"properties":{"id":"n13397278552","name":"Bienvenue","country":"Austria","countryCode":"AT","region":null,"locality":null,"website":null,"badge":"Climbing spot","stat":"Sport climbing","tags":[]}},{"type":"Feature","geometry":{"type":"Point","coordinates":[12.76491,47.50879]},"properties":{"id":"n13388643739","name":"Bierbauch","country":"Austria","countryCode":"AT","region":null,"locality":null,"website":null,"badge":"Climbing spot","stat":"Sport climbing","tags":[]}},{"type":"Feature","geometry":{"type":"Point","coordinates":[10.78198,47.27443]},