{"type":"FeatureCollection","features":[{"type":"Feature","geometry":{"type":"Point","coordinates":[5.58028,43.52898]},"properties":{"id":"w214679567","name":"(Ancien sentier noir)","country":"France","countryCode":"FR","region":null,"locality":null,"website":null,"badge":"Climbing spot","stat":"Climbing area","tags":["Graded routes"]}},{"type":"Feature","geometry":{"type":"Point","coordinates":[6.16442,46.13568]},"properties":{"id":"n13230678204","name":"(balcon)","country":"France","countryCode":"FR","region":null,"locality":null,"website":null,"badge":"Climbing spot","stat":"Sport climbing","tags":["Sport"]}},{"type":"Feature","geometry":{"type":"Point","coordinates":[2.41927,48.85163]},"properties":{"id":"w81776027","name":"(double) Arkose Montreuil","country":"France","countryCode":"FR","region":null,"locality":"Montreuil","website":"https://www.arkose.com/montreuil","badge":"Climbing spot","stat":"Bouldering","tags":["Boulder","Indoor"]}},{"type":"Feature","geometry":{"type":"Point","coordinates":[5.59532,43.52418]},"properties":{"id":"n10051791837","name":"(Pas)","country":"France","countryCode":"FR","region":null,"locality":null,"website":null,"badge":"Climbing spot","stat":"Climbing area","tags":[]}},{"type":"Feature","geometry":{"type":"Point","coordinates":[2.31162,48.89616]},"properties":{"id":"n9733049784","name":"17e Degré","country":"France","countryCode":"FR","region":null,"locality":null,"website":null,"badge":"Climbing spot","stat":"Climbing area","tags":[]}},{"type":"Feature","geometry":{"type":"Point","coordinates":[6.03833,43.611]},"properties":{"id":"n2938054664","name":"1er Ressaut","country":"France","countryCode":"FR","region":null,"locality":null,"website":null,"badge":"Climbing spot","stat":"Climbing area","tags":[]}},{"type":"Feature","geometry":{"type":"Point","coordinates":[6.3833,43.611]},"properties":{"id":"n2938054665","name":"2e Ressaut","country":"France","countryCode":"FR","region":null,"locality":null,"website":null,"badge":"Climbing spot","stat":"Climbing area","tags":[]}},{"type":"Feature","geometry":{"type":"Point","coordinates":[9.29508,41.71222]},"properties":{"id":"n13356072767","name":"3 Caves - La Grande Face","country":"France","countryCode":"FR","region":null,"locality":null,"website":"https://app.omegaroc.com/topos","badge":"Climbing spot","stat":"Sport climbing","tags":["Sport"]}},{"type":"Feature","geometry":{"type":"Point","coordinates":[9.29518,41.71194]},"properties":{"id":"n13356072768","name":"3 Caves - Secteur Faut Pacifier","country":"France","countryCode":"FR","region":null,"locality":null,"website":"https://app.omegaroc.com/topos","badge":"Climbing spot","stat":"Sport climbing","tags":["Sport"]}},{"type":"Feature","geometry":{"type":"Point","coordinates":[9.29462,41.71222]},"properties":{"id":"n13356072769","name":"3 Caves - Secteur P'tit Pimousse","country":"France","countryCode":"FR","region":null,"locality":null,"website":"https://app.omegaroc.com/topos","badge":"Climbing spot","stat":"Sport climbing","tags":["Sport"]}},{"type":"Feature","geometry":{"type":"Point","coordinates":[2.51897,48.37728]},"properties":{"id":"n11265502905","name":"91.1","country":"France","countryCode":"FR","region":null,"locality":null,"website":null,"badge":"Climbing spot","stat":"Bouldering","tags":["Boulder"]}},{"type":"Feature","geometry":{"type":"Point","coordinates":[2.52988,48.38565]},"properties":{"id":"w1484405808","name":"95,2","country":"France","countryCode":"FR","region":null,"locality":null,"website":null,"badge":"Climbing spot","stat":"Bouldering","tags":["Boulder"]}},{"type":"Feature","geometry":{"type":"Point","coordinates":[2.53017,48.38573]},"properties":{"id":"n11265502902","name":"95.2","country":"France","countryCode":"FR","region":null,"locality":null,"website":null,"badge":"Climbing spot","stat":"Bouldering","tags":["Boulder"]}},{"type":"Feature","geometry":{"type":"Point","coordinates":[2.52808,48.38566]},"properties":{"id":"n940040336","name":"95.2 Ouest","country":"France","countryCode":"FR","region":null,"locality":null,"website":null,"badge":"Climbing spot","stat":"Bouldering","tags":["Boulder"]}},{"type":"Feature","geometry":{"type":"Point","coordinates":[2.33291,48.87787]},"properties":{"id":"n9652775587","name":"9apic","country":"France","countryCode":"FR","region":null,"locality":"Paris","website":"https://www.9apic.org","badge":"Climbing spot","stat":"Climbing area","tags":[]}},{"type":"Feature","geometry":{"type":"Point","coordinates":[6.32773,45.92989]},"properties":{"id":"n13247411633","name":"A capella","country":"France","countryCode":"FR","region":null,"locality":null,"website":null,"badge":"Climbing spot","stat":"Sport climbing","tags":["Sport"]}},{"type":"Feature","geometry":{"type":"Point","coordinates":[3.22799,44.19432]},"properties":{"id":"n11783496526","name":"À l'aise Breizh","country":"France","countryCode":"FR","region":null,"locality":null,"website":null,"badge":"Climbing spot","stat":"Indoor climbing gym","tags":["Indoor"]}},{"type":"Feature","geometry":{"type":"Point","coordinates":[1.15939,44.80911]},"properties":{"id":"n12270096275","name":"A l'Aube du troisième jour","country":"France","countryCode":"FR","region":null,"locality":null,"website":null,"badge":"Climbing spot","stat":"Climbing area","tags":[]}},{"type":"Feature","geometry":{"type":"Point","coordinates":[1.97583,48.71674]},"properties":{"id":"n11244504944","name":"À l'Ombre de la Grande","country":"France","countryCode":"FR","region":null,"locality":null,"website":null,"badge":"Climbing spot","stat":"Bouldering","tags":[]}},{"type":"Feature","geometry":{"type":"Point","coordinates":[9.06758,42.09666]},"properties":{"id":"n12965183528","name":"A Prima Volta Grande voie","country":"France","countryCode":"FR","region":null,"locality":null,"website":"https://app.omegaroc.com/topos","badge":"Climbing spot","stat":"Sport climbing","tags":["Sport","Multipitch","Granite"]}},{"type":"Feature","geometry":{"type":"Point","coordinates":[9.06606,42.09375]},"properties":{"id":"n4330667889","name":"A Richiusa","country":"France","countryCode":"FR","region":null,"locality":null,"website":null,"badge":"Climbing spot","stat":"Climbing area","tags":[]}},{"type":"Feature","geometry":{"type":"Point","coordinates":[2.53258,48.37147]},"properties":{"id":"n13203512918","name":"À Table","country":"France","countryCode":"FR","region":null,"locality":null,"website":null,"badge":"Climbing spot","stat":"Bouldering","tags":[]}},{"type":"Feature","geometry":{"type":"Point","coordinates":[6.44714,44.88113]},"properties":{"id":"n11143619365","name":"A Tire de Ailefroide","country":"France","countryCode":"FR","region":null,"locality":null,"website":null,"badge":"Climbing spot","stat":"Climbing area","tags":[]}},{"type":"Feature","geometry":{"type":"Point","coordinates":[9.3729,42.90566]},"properties":{"id":"n13357860209","name":"A Torra di Seneca - Face Nord","country":"France","countryCode":"FR","region":null,"locality":null,"website":"https://app.omegaroc.com/topos","badge":"Climbing spot","stat":"Sport climbing","tags":["Sport","Granite"]}},{"type":"Feature","geometry":{"type":"Point","coordinates":[9.37291,42.90497]},"properties":{"id":"n6572482836","name":"A Torra di Seneca - Grandes voies Seneca","country":"France","countryCode":"FR","region":null,"locality":null,"website":"https://app.omegaroc.com/topos","badge":"Climbing spot","stat":"Sport climbing","tags":["Sport","Multipitch","Granite"]}},{"type":"Feature","geometry":{"type":"Point","coordinates":[9.37323,42.90527]},"properties":{"id":"n13357860207","name":"A Torra di Seneca - U Muru","country":"France","countryCode":"FR","region":null,"locality":null,"website":"https://app.omegaroc.com/topos","badge":"Climbing spot","stat":"Sport climbing","tags":["Sport","Granite"]}},{"type":"Feature","geometry":{"type":"Point","coordinates":[9.37316,42.9055]},"properties":{"id":"n13357860208","name":"A Torra di Seneca - U Tettu","country":"France","countryCode":"FR","region":null,"locality":null,"website":"https://app.omegaroc.com/topos","badge":"Climbing spot","stat":"Sport climbing","tags":["Sport","Granite"]}},{"type":"Feature","geometry":{"type":"Point","coordinates":[9.36806,42.6975]},"properties":{"id":"n2938054648","name":"A Tozza","country":"France","countryCode":"FR","region":null,"locality":null,"website":"https://app.omegaroc.com/topos","badge":"Climbing spot","stat":"Sport climbing","tags":["Sport","Limestone"]}},{"type":"Feature","geometry":{"type":"Point","coordinates":[9.30013,41.71839]},"properties":{"id":"n13240821026","name":"A Tyroliana - Grande Face","country":"France","countryCode":"FR","region":null,"locality":null,"website":"https://app.omegaroc.com/topos","badge":"Climbing spot","stat":"Sport climbing","tags":["Sport","Granite"]}},{"type":"Feature","geometry":{"type":"Point","coordinates":[9.29997,41.71856]},"properties":{"id":"n13357160594","name":"A Tyroliana - Secteur Initiation","country":"France","countryCode":"FR","region":null,"locality":null,"website":"https://app.omegaroc.com/topos","badge":"Climbing spot","stat":"Sport climbing","tags":["Sport","Granite"]}},{"type":"Feature","geometry":{"type":"Point","coordinates":[9.27381,41.82378]},"properties":{"id":"n13241161360","name":"A Vacca","country":"France","countryCode":"FR","region":null,"locality":null,"website":"https://app.omegaroc.com/topos","badge":"Climbing spot","stat":"Sport climbing","tags":["Sport","Granite"]}},{"type":"Feature","geometry":{"type":"Point","coordinates":[3.06746,45.54632]},"properties":{"id":"n7760929400","name":"À vos coinceurs terrain d'aventure","country":"France","countryCode":"FR","region":null,"locality":null,"website":null,"badge":"Climbing spot","stat":"Climbing area","tags":[]}},{"type":"Feature","geometry":{"type":"Point","coordinates":[9.26476,41.81415]},"properties":{"id":"n12157491659","name":"A Zucca Arête Nord","country":"France","countryCode":"FR","region":null,"locality":null,"website":null,"badge":"Climbing spot","stat":"Natural crag","tags":[]}},{"type":"Feature","geometry":{"type":"Point","coordinates":[6.13283,45.94193]},"properties":{"id":"n926528891","name":"Ablok","country":"France","countryCode":"FR","region":null,"locality":"Argonay","website":"https://ablok.fr/annecy","badge":"Climbing spot","stat":"Indoor climbing gym","tags":["Indoor"]}},{"type":"Feature","geometry":{"type":"Point","coordinates":[5.73404,45.17688]},"properties":{"id":"n2607968023","name":"Ablok","country":"France","countryCode":"FR","region":null,"locality":null,"website":"https://www.ablok.fr/","badge":"Climbing spot","stat":"Bouldering","tags":["Boulder","Indoor"]}},{"type":"Feature","geometry":{"type":"Point","coordinates":[6.55094,45.9534]},"properties":{"id":"w25813081","name":"Accès à la Voie \"Ombre Chinoise\"","country":"France","countryCode":"FR","region":null,"locality":null,"website":null,"badge":"Climbing spot","stat":"Climbing area","tags":[]}},{"type":"Feature","geometry":{"type":"Point","coordinates":[6.33322,45.31751]},"properties":{"id":"w27682265","name":"Accès à la Voie Plein les Yeux","country":"France","countryCode":"FR","region":null,"locality":null,"website":null,"badge":"Climbing spot","stat":"Climbing area","tags":[]}},{"type":"Feature","geometry":{"type":"Point","coordinates":[6.55178,45.95325]},"properties":{"id":"n281570358","name":"Acces à Ombre Chinoise","country":"France","countryCode":"FR","region":null,"locality":null,"website":null,"badge":"Climbing spot","stat":"Climbing area","tags":[]}},{"type":"Feature","geometry":{"type":"Point","coordinates":[6.00337,45.59622]},"properties":{"id":"w25667650","name":"Accès aux Voies d'Escalade du Peney","country":"France","countryCode":"FR","region":null,"locality":null,"website":null,"badge":"Climbing spot","stat":"Climbing area","tags":[]}},{"type":"Feature","geometry":{"type":"Point","coordinates":[1.2742,44.86805]},"properties":{"id":"n9658864110","name":"Accro-branche La Forêt des Ecureuils","country":"France","countryCode":"FR","region":null,"locality":null,"website":null,"badge":"Climbing spot","stat":"Climbing area","tags":[]}},{"type":"Feature","geometry":{"type":"Point","coordinates":[-1.2009,45.88823]},"properties":{"id":"n868547276","name":"Accrobranche","country":"France","countryCode":"FR","region":null,"locality":null,"website":null,"badge":"Climbing spot","stat":"Climbing area","tags":[]}},{"type":"Feature","geometry":{"type":"Point","coordinates":[4.25853,44.62861]},"properties":{"id":"n1628185177","name":"Accrobranche","country":"France","countryCode":"FR","region":null,"locality":null,"website":null,"badge":"Climbing spot","stat":"Climbing area","tags":[]}},{"type":"Feature","geometry":{"type":"Point","coordinates":[4.37081,44.65657]},"properties":{"id":"w156705097","name":"Accrobranche","country":"France","countryCode":"FR","region":null,"locality":null,"website":null,"badge":"Climbing spot","stat":"Climbing area","tags":[]}},{"type":"Feature","geometry":{"type":"Point","coordinates":[0.56053,46.44664]},"properties":{"id":"n11101213385","name":"Accrobranche DéfiPlanet'","country":"France","countryCode":"FR","region":null,"locality":"Dienné","website":null,"badge":"Climbing spot","stat":"Indoor climbing gym","tags":["Indoor"]}},{"type":"Feature","geometry":{"type":"Point","coordinates":[1.10676,42.9593]},"properties":{"id":"n3034693785","name":"Accrobranche Via Ferrata Roc'Aventure","country":"France","countryCode":"FR","region":null,"locality":null,"website":"https://www.horizonvertical.net/","badge":"Climbing spot","stat":"Indoor climbing gym","tags":["Indoor"]}},{"type":"Feature","geometry":{"type":"Point","coordinates":[4.77082,48.55157]},"properties":{"id":"n2384702621","name":"Accroder","country":"France","countryCode":"FR","region":null,"locality":null,"website":"http://www.accroder.com","badge":"Climbing spot","stat":"Climbing area","tags":[]}},{"type":"Feature","geometry":{"type":"Point","coordinates":[9.08752,42.25456]},"properties":{"id":"n4405997448","name":"Acqua di Rocca","country":"France","countryCode":"FR","region":null,"locality":null,"website":null,"badge":"Climbing spot","stat":"Sport climbing","tags":[]}},{"type":"Feature","geometry":{"type":"Point","coordinates":[5.04615,43.43691]},"properties":{"id":"n2835707756","name":"Acrobranches","country":"France","countryCode":"FR","region":null,"locality":null,"website":null,"badge":"Climbing spot","stat":"Climbing area","tags":[]}},{"type":"Feature","geometry":{"type":"Point","coordinates":[9.19077,42.38507]},"properties":{"id":"n2938052163","name":"Adora","country":"France","countryCode":"FR","region":null,"locality":null,"website":null,"badge":"Climbing spot","stat":"Climbing area","tags":[]}},{"type":"Feature","geometry":{"type":"Point","coordinates":[5.70143,44.3222]},"properties":{"id":"n10798726136","name":"Adrech","country":"France","countryCode":"FR","region":null,"locality":null,"website":null,"badge":"Climbing spot","stat":"Sport climbing","tags":["Sport","Multipitch","Limestone"]}},{"type":"Feature","geometry":{"type":"Point","coordinates":[6.73958,43.75549]},"properties":{"id":"n4385741860","name":"Adreche de Besson","country":"France","countryCode":"FR","region":null,"locality":null,"website":null,"badge":"Climbing spot","stat":"Climbing area","tags":[]}},{"type":"Feature","geometry":{"type":"Point","coordinates":[3.73289,43.91081]},"properties":{"id":"n4969935806","name":"Agonès Connangles","country":"France","countryCode":"FR","region":null,"locality":null,"website":null,"badge":"Climbing spot","stat":"Climbing area","tags":[]}},{"type":"Feature","geometry":{"type":"Point","coordinates":[3.7339,43.90641]},"properties":{"id":"n4940362766","name":"Agonès Euzière","country":"France","countryCode":"FR","region":null,"locality":null,"website":null,"badge":"Climbing spot","stat":"Climbing area","tags":[]}},{"type":"Feature","geometry":{"type":"Point","coordinates":[3.73364,43.90888]},"properties":{"id":"n4969935811","name":"Agonès Rocher de Sion","country":"France","countryCode":"FR","region":null,"locality":null,"website":null,"badge":"Climbing spot","stat":"Climbing area","tags":[]}},{"type":"Feature","geometry":{"type":"Point","coordinates":[2.2434,48.83048]},"properties":{"id":"n2199815454","name":"Agrippine Club d'Escalade","country":"France","countryCode":"FR","region":null,"locality":"Boulogne-Billancourt","website":"https://www.agrippine.com","badge":"Climbing spot","stat":"Sport climbing","tags":["Sport"]}},{"type":"Feature","geometry":{"type":"Point","coordinates":[1.57329,42.51608]},"properties":{"id":"n3141318195","name":"Agulles d'Engolasters","country":"France","countryCode":"FR","region":null,"locality":null,"website":"https://visitandorra.com/es/naturaleza/zona-de-escalada-agulles-d-engolasters/","badge":"Climbing spot","stat":"Climbing area","tags":["Graded routes"]}},{"type":"Feature","geometry":{"type":"Point","coordinates":[5.01304,47.37047]},"properties":{"id":"n5676385397","name":"Ahuy","country":"France","countryCode":"FR","region":null,"locality":null,"website":null,"badge":"Climbing spot","stat":"Climbing area","tags":[]}},{"type":"Feature","geometry":{"type":"Point","coordinates":[5.29004,44.28628]},"properties":{"id":"n10798781568","name":"Aiguille de Buis","country":"France","countryCode":"FR","region":null,"locality":null,"website":null,"badge":"Climbing spot","stat":"Natural crag","tags":["Multipitch","Limestone"]}},{"type":"Feature","geometry":{"type":"Point","coordinates":[6.85615,44.54755]},"properties":{"id":"n26862458","name":"Aiguille de Chambeyron","country":"France","countryCode":"FR","region":null,"locality":null,"website":null,"badge":"Climbing spot","stat":"Climbing area","tags":[]}},{"type":"Feature","geometry":{"type":"Point","coordinates":[2.83214,45.52491]},"properties":{"id":"w719473946","name":"Aiguille du Moine","country":"France","countryCode":"FR","region":null,"locality":null,"website":null,"badge":"Climbing spot","stat":"Climbing area","tags":[]}},{"type":"Feature","geometry":{"type":"Point","coordinates":[2.96242,43.59166]},"properties":{"id":"n8543301028","name":"Aiguille Godefroy","country":"France","countryCode":"FR","region":null,"locality":null,"website":null,"badge":"Climbing spot","stat":"Climbing area","tags":[]}},{"type":"Feature","geometry":{"type":"Point","coordinates":[6.85687,44.56975]},"properties":{"id":"n2793713944","name":"Aiguille Large","country":"France","countryCode":"FR","region":null,"locality":null,"website":null,"badge":"Climbing spot","stat":"Climbing area","tags":[]}},{"type":"Feature","geometry":{"type":"Point","coordinates":[6.85293,44.57381]},"properties":{"id":"n2793713923","name":"Aiguille Pierre André","country":"France","countryCode":"FR","region":null,"locality":null,"website":null,"badge":"Climbing spot","stat":"Climbing area","tags":[]}},{"type":"Feature","geometry":{"type":"Point","coordinates":[2.96363,43.58944]},"properties":{"id":"n8560337708","name":"Aiguille Viallat","country":"France","countryCode":"FR","region":null,"locality":null,"website":null,"badge":"Climbing spot","stat":"Climbing area","tags":[]}},{"type":"Feature","geometry":{"type":"Point","coordinates":[6.4479,44.8913]},"properties":{"id":"w182736191","name":"Ailefroide - Amigos","country":"France","countryCode":"FR","region":null,"locality":null,"website":null,"badge":"Climbing spot","stat":"Sport climbing","tags":["Sport","Multipitch","Granite","Graded routes"]}},{"type":"Feature","geometry":{"type":"Point","coordinates":[6.44841,44.89066]},"properties":{"id":"w182736195","name":"Ailefroide - Secteur école (Draye droite)","country":"France","countryCode":"FR","region":null,"locality":null,"website":null,"badge":"Climbing spot","stat":"Sport climbing","tags":["Sport","Granite","Graded routes"]}},{"type":"Feature","geometry":{"type":"Point","coordinates":[6.52338,44.37104]},"properties":{"id":"w1293696600","name":"Ailette","country":"France","countryCode":"FR","region":null,"locality":null,"website":null,"badge":"Climbing spot","stat":"Natural crag","tags":["Multipitch","Limestone"]}},{"type":"Feature","geometry":{"type":"Point","coordinates":[2.7508,48.52643]},"properties":{"id":"w220957871","name":"Aire de jeux","country":"France","countryCode":"FR","region":null,"locality":null,"website":null,"badge":"Climbing spot","stat":"Indoor climbing gym","tags":["Indoor"]}},{"type":"Feature","geometry":{"type":"Point","coordinates":[-1.26732,47.16544]},"properties":{"id":"w450273014","name":"Aire de Jeux","country":"France","countryCode":"FR","region":null,"locality":null,"website":null,"badge":"Climbing spot","stat":"Climbing area","tags":[]}},{"type":"Feature","geometry":{"type":"Point","coordinates":[9.19858,42.39844]},"properties":{"id":"n11251268371","name":"Aïti","country":"France","countryCode":"FR","region":null,"locality":null,"website":null,"badge":"Climbing spot","stat":"Natural crag","tags":[]}},{"type":"Feature","geometry":{"type":"Point","coordinates":[5.23954,44.21663]},"properties":{"id":"w1274264892","name":"Al Andalouz","country":"France","countryCode":"FR","region":null,"locality":null,"website":"https://www.thecrag.com/en/climbing/france/saint-leger-gorges/area/1621877286","badge":"Climbing spot","stat":"Sport climbing","tags":["Sport","Limestone"]}},{"type":"Feature","geometry":{"type":"Point","coordinates":[7.42819,43.75899]},"properties":{"id":"w1453137365","name":"Alcatraz","country":"France","countryCode":"FR","region":null,"locality":null,"website":null,"badge":"Climbing spot","stat":"Natural crag","tags":[]}},{"type":"Feature","geometry":{"type":"Point","coordinates":[4.07959,44.13097]},"properties":{"id":"w130820659","name":"Alès'Calade","country":"France","countryCode":"FR","region":null,"locality":null,"website":null,"badge":"Climbing spot","stat":"Bouldering","tags":[]}},{"type":"Feature","geometry":{"type":"Point","coordinates":[9.24855,41.81991]},"properties":{"id":"n11008092039","name":"Alexandra","country":"France","countryCode":"FR","region":null,"locality":null,"website":null,"badge":"Climbing spot","stat":"Natural crag","tags":[]}},{"type":"Feature","geometry":{"type":"Point","coordinates":[6.09142,45.75293]},"properties":{"id":"n9992405485","name":"Allèves","country":"France","countryCode":"FR","region":null,"locality":null,"website":null,"badge":"Climbing spot","stat":"Climbing area","tags":[]}},{"type":"Feature","geometry":{"type":"Point","coordinates":[1.58672,42.81904]},"properties":{"id":"n12330519216","name":"Alliat","country":"France","countryCode":"FR","region":null,"locality":null,"website":"https://topo-escalade-cafma.fr/sites-escalade/alliat/","badge":"Climbing spot","stat":"Climbing area","tags":[]}},{"type":"Feature","geometry":{"type":"Point","coordinates":[1.97596,48.71622]},"properties":{"id":"n11244503553","name":"Allons z'Enfants","country":"France","countryCode":"FR","region":null,"locality":null,"website":null,"badge":"Climbing spot","stat":"Bouldering","tags":[]}},{"type":"Feature","geometry":{"type":"Point","coordinates":[5.24484,45.59147]},"properties":{"id":"n9713284824","name":"AlpaBloc","country":"France","countryCode":"FR","region":null,"locality":null,"website":"https://www.alpabloc.fr/","badge":"Climbing spot","stat":"Indoor climbing gym","tags":["Indoor"]}},{"type":"Feature","geometry":{"type":"Point","coordinates":[4.98358,44.42604]},"properties":{"id":"n6566543478","name":"Alti grimp","country":"France","countryCode":"FR","region":null,"locality":null,"website":null,"badge":"Climbing spot","stat":"Indoor climbing gym","tags":["Indoor"]}},{"type":"Feature","geometry":{"type":"Point","coordinates":[-1.49176,47.18898]},"properties":{"id":"w314861474","name":"Altissimo","country":"France","countryCode":"FR","region":null,"locality":null,"website":null,"badge":"Climbing spot","stat":"Indoor climbing gym","tags":["Indoor"]}},{"type":"Feature","geometry":{"type":"Point","coordinates":[5.37315,43.33391]},"properties":{"id":"n3814559036","name":"Altissimo","country":"France","countryCode":"FR","region":null,"locality":"Marseille","website":null,"badge":"Climbing spot","stat":"Indoor climbing gym","tags":["Indoor"]}},{"type":"Feature","geometry":{"type":"Point","coordinates":[6.11992,49.08791]},"properties":{"id":"n12922984648","name":"Altissimo","country":"France","countryCode":"FR","region":null,"locality":null,"website":"https://metz-loisirama.altissimo.fr","badge":"Climbing spot","stat":"Indoor climbing gym","tags":["Indoor"]}},{"type":"Feature","geometry":{"type":"Point","coordinates":[3.80156,43.64747]},"properties":{"id":"n11922707050","name":"Altissimo Grabels","country":"France","countryCode":"FR","region":null,"locality":null,"website":"https://montpellier-grabels.altissimo.fr/index.html","badge":"Climbing spot","stat":"Bouldering","tags":["Boulder","Indoor"]}},{"type":"Feature","geometry":{"type":"Point","coordinates":[1.48744,43.56682]},"properties":{"id":"w49197614","name":"Altissimo Montaudran","country":"France","countryCode":"FR","region":null,"locality":null,"website":"https://toulouse-montaudran.altissimo.fr","badge":"Climbing spot","stat":"Bouldering","tags":["Boulder","Indoor"]}},{"type":"Feature","geometry":{"type":"Point","coordinates":[3.91825,43.60342]},"properties":{"id":"n13046237055","name":"Altissimo Montpellier Odysseum","country":"France","countryCode":"FR","region":null,"locality":null,"website":"https://montpellier-odysseum.altissimo.fr","badge":"Climbing spot","stat":"Indoor climbing gym","tags":["Indoor"]}},{"type":"Feature","geometry":{"type":"Point","coordinates":[2.91789,42.68841]},"properties":{"id":"n8927002497","name":"Altissimo Perpignan","country":"France","countryCode":"FR","region":null,"locality":null,"website":"https://perpignan.altissimo.fr/","badge":"Climbing spot","stat":"Indoor climbing gym","tags":["Indoor"]}},{"type":"Feature","geometry":{"type":"Point","coordinates":[1.40844,43.55153]},"properties":{"id":"n9391681506","name":"Altissimo Portet","country":"France","countryCode":"FR","region":null,"locality":null,"website":"https://toulouse-portet.altissimo.fr/","badge":"Climbing spot","stat":"Sport climbing","tags":["Sport","Indoor"]}},{"type":"Feature","geometry":{"type":"Point","coordinates":[1.36724,43.60197]},"properties":{"id":"w104069183","name":"Altissimo Saint-Martin","country":"France","countryCode":"FR","region":null,"locality":null,"website":"https://toulouse-saint-martin.altissimo.fr","badge":"Climbing spot","stat":"Sport climbing","tags":["Sport","Boulder","Graded routes","Indoor"]}},{"type":"Feature","geometry":{"type":"Point","coordinates":[-1.23235,43.70825]},"properties":{"id":"w1492516716","name":"Altissimo-escalade","country":"France","countryCode":"FR","region":null,"locality":"Saint-Geours-de-Maremne","website":null,"badge":"Climbing spot","stat":"Indoor climbing gym","tags":["Indoor"]}},{"type":"Feature","geometry":{"type":"Point","coordinates":[6.32723,45.92974]},"properties":{"id":"n306470699","name":"Amadeus","country":"France","countryCode":"FR","region":null,"locality":null,"website":null,"badge":"Climbing spot","stat":"Sport climbing","tags":["Sport"]}},{"type":"Feature","geometry":{"type":"Point","coordinates":[3.49874,43.7085]},"properties":{"id":"n13376336788","name":"Amandier - Le Joncas","country":"France","countryCode":"FR","region":null,"locality":null,"website":null,"badge":"Climbing spot","stat":"Climbing area","tags":[]}},{"type":"Feature","geometry":{"type":"Point","coordinates":[5.02759,43.8349]},"properties":{"id":"w1046914631","name":"Amarcord","country":"France","countryCode":"FR","region":null,"locality":null,"website":null,"badge":"Climbing spot","stat":"Natural crag","tags":[]}},{"type":"Feature","geometry":{"type":"Point","coordinates":[6.62564,44.66569]},"properties":{"id":"w1192504812","name":"Amazonic","country":"France","countryCode":"FR","region":null,"locality":null,"website":"https://www.thecrag.com/en/climbing/france/mont-daupin/area/6164897925","badge":"Climbing spot","stat":"Sport climbing","tags":["Sport","Conglomerate"]}},{"type":"Feature","geometry":{"type":"Point","coordinates":[1.73378,44.09315]},"properties":{"id":"n8290140322","name":"Amiel","country":"France","countryCode":"FR","region":null,"locality":null,"website":null,"badge":"Climbing spot","stat":"Indoor climbing gym","tags":["Indoor"]}},{"type":"Feature","geometry":{"type":"Point","coordinates":[2.56292,48.93872]},"properties":{"id":"w1261882888","name":"Ancien mur de protection","country":"France","countryCode":"FR","region":null,"locality":null,"website":null,"badge":"Climbing spot","stat":"Climbing area","tags":[]}},{"type":"Feature","geometry":{"type":"Point","coordinates":[2.54977,48.94046]},"properties":{"id":"w1261860874","name":"Ancien mur de protection du champ de tir","country":"France","countryCode":"FR","region":null,"locality":null,"website":null,"badge":"Climbing spot","stat":"Climbing area","tags":[]}},{"type":"Feature","geometry":{"type":"Point","coordinates":[4.46517,46.44238]},"properties":{"id":"w1501798981","name":"Ancien Secteur","country":"France","countryCode":"FR","region":null,"locality":null,"website":"https://ogrescalade.fr/assets/pdf/topo%20suin.pdf","badge":"Climbing spot","stat":"Bouldering","tags":["Boulder"]}},{"type":"Feature","geometry":{"type":"Point","coordinates":[0.29945,48.4193]},"properties":{"id":"n3984574582","name":"Ancienne carrière de Louzes","country":"France","countryCode":"FR","region":null,"locality":null,"website":null,"badge":"Climbing spot","stat":"Climbing area","tags":[]}},{"type":"Feature","geometry":{"type":"Point","coordinates":[-1.52766,48.99358]},"properties":{"id":"n1699458314","name":"Anciennes Carrières de Montmartin-sur-Mer","country":"France","countryCode":"FR","region":null,"locality":null,"website":null,"badge":"Climbing spot","stat":"Indoor climbing gym","tags":["Indoor"]}},{"type":"Feature","geometry":{"type":"Point","coordinates":[1.69538,44.5186]},"properties":{"id":"n4144050329","name":"Anglanat","country":"France","countryCode":"FR","region":null,"locality":null,"website":null,"badge":"Climbing spot","stat":"Climbing area","tags":[]}},{"type":"Feature","geometry":{"type":"Point","coordinates":[1.6952,44.51854]},"properties":{"id":"n5809498533","name":"Anglanat","country":"France","countryCode":"FR","region":null,"locality":null,"website":null,"badge":"Climbing spot","stat":"Indoor climbing gym","tags":["Indoor"]}},{"type":"Feature","geometry":{"type":"Point","coordinates":[6.50437,46.13748]},"properties":{"id":"r18052589","name":"Anthon","country":"France","countryCode":"FR","region":null,"locality":null,"website":"https://www.escalade-74.com/anthon/","badge":"Climbing spot","stat":"Climbing area","tags":[]}},{"type":"Feature","geometry":{"type":"Point","coordinates":[6.49928,46.13882]},"properties":{"id":"w312908280","name":"Anthon - secteur Belle de Cadix","country":"France","countryCode":"FR","region":null,"locality":null,"website":null,"badge":"Climbing spot","stat":"Natural crag","tags":[]}},{"type":"Feature","geometry":{"type":"Point","coordinates":[6.5022,46.13697]},"properties":{"id":"w797544264","name":"Anthon - secteur Potion magique","country":"France","countryCode":"FR","region":null,"locality":null,"website":null,"badge":"Climbing spot","stat":"Natural crag","tags":[]}},{"type":"Feature","geometry":{"type":"Point","coordinates":[6.50922,46.13657]},"properties":{"id":"w312908279","name":"Anthon - secteur Rino","country":"France","countryCode":"FR","region":null,"locality":null,"website":null,"badge":"Climbing spot","stat":"Natural crag","tags":[]}},{"type":"Feature","geometry":{"type":"Point","coordinates":[6.50015,46.13867]},"properties":{"id":"w797544261","name":"Anthon - secteur Turbostyle","country":"France","countryCode":"FR","region":null,"locality":null,"website":null,"badge":"Climbing spot","stat":"Natural crag","tags":[]}},{"type":"Feature","geometry":{"type":"Point","coordinates":[6.50162,46.13739]},"properties":{"id":"w312908282","name":"Anthon - secteur Vert clair","country":"France","countryCode":"FR","region":null,"locality":null,"website":null,"badge":"Climbing spot","stat":"Natural crag","tags":[]}},{"type":"Feature","geometry":{"type":"Point","coordinates":[3.49884,43.70769]},"properties":{"id":"n13376314678","name":"Anthropocène - Le Joncas","country":"France","countryCode":"FR","region":null,"locality":null,"website":null,"badge":"Climbing spot","stat":"Climbing area","tags":[]}},{"type":"Feature","geometry":{"type":"Point","coordinates":[0.78246,45.1898]},"properties":{"id":"n12270700569","name":"Antipode","country":"France","countryCode":"FR","region":null,"locality":null,"website":"https://antipode24.com/","badge":"Climbing spot","stat":"Bouldering","tags":["Boulder","Indoor"]}},{"type":"Feature","geometry":{"type":"Point","coordinates":[1.48925,45.14727]},"properties":{"id":"n13368104514","name":"Antipode","country":"France","countryCode":"FR","region":null,"locality":null,"website":"https://antipode24.com/","badge":"Climbing spot","stat":"Climbing area","tags":[]}},{"type":"Feature","geometry":{"type":"Point","coordinates":[6.51024,48.59723]},"properties":{"id":"n10570032970","name":"Antivol","country":"France","countryCode":"FR","region":null,"locality":null,"website":null,"badge":"Climbing spot","stat":"Climbing area","tags":[]}},{"type":"Feature","geometry":{"type":"Point","coordinates":[2.36542,48.80399]},"properties":{"id":"n3427783125","name":"Antrebloc","country":"France","countryCode":"FR","region":null,"locality":null,"website":"https://www.antrebloc.com/","badge":"Climbing spot","stat":"Bouldering","tags":["Boulder","Indoor"]}},{"type":"Feature","geometry":{"type":"Point","coordinates":[2.38854,48.92897]},"properties":{"id":"n9735141088","name":"APACHE","country":"France","countryCode":"FR","region":null,"locality":"La Courneuve","website":null,"badge":"Climbing spot","stat":"Climbing area","tags":[]}},{"type":"Feature","geometry":{"type":"Point","coordinates":[1.3983,42.80183]},"properties":{"id":"n13671024792","name":"Apprenti Grimpeur","country":"France","countryCode":"FR","region":null,"locality":null,"website":null,"badge":"Climbing spot","stat":"Climbing area","tags":[]}},{"type":"Feature","geometry":{"type":"Point","coordinates":[2.62959,48.43654]},"properties":{"id":"n1345298688","name":"Apremont","country":"France","countryCode":"FR","region":null,"locality":null,"website":null,"badge":"Climbing spot","stat":"Bouldering","tags":["Boulder"]}},{"type":"Feature","geometry":{"type":"Point","coordinates":[2.63607,48.43215]},"properties":{"id":"n11265502892","name":"Apremont Belvédère","country":"France","countryCode":"FR","region":null,"locality":null,"website":null,"badge":"Climbing spot","stat":"Bouldering","tags":["Boulder"]}},{"type":"Feature","geometry":{"type":"Point","coordinates":[2.62097,48.43574]},"properties":{"id":"n4926219281","name":"Apremont Bizons","country":"France","countryCode":"FR","region":null,"locality":null,"website":null,"badge":"Climbing spot","stat":"Bouldering","tags":["Boulder"]}},{"type":"Feature","geometry":{"type":"Point","coordinates":[2.60339,48.43675]},"properties":{"id":"n11265502868","name":"Apremont Brûlis","country":"France","countryCode":"FR","region":null,"locality":null,"website":null,"badge":"Climbing spot","stat":"Bouldering","tags":["Boulder"]}},{"type":"Feature","geometry":{"type":"Point","coordinates":[2.62282,48.43756]},"properties":{"id":"n3642983597","name":"Apremont Butte aux Dames","country":"France","countryCode":"FR","region":null,"locality":null,"website":null,"badge":"Climbing spot","stat":"Bouldering","tags":["Boulder"]}},{"type":"Feature","geometry":{"type":"Point","coordinates":[2.61186,48.44107]},"properties":{"id":"n11265502809","name":"Apremont Butte aux Peintres","country":"France","countryCode":"FR","region":null,"locality":null,"website":null,"badge":"Climbing spot","stat":"Bouldering","tags":["Boulder"]}},{"type":"Feature","geometry":{"type":"Point","coordinates":[2.62593,48.4401]},"properties":{"id":"n11265502919","name":"Apremont Buvette","country":"France","countryCode":"FR","region":null,"locality":null,"website":null,"badge":"Climbing spot","stat":"Bouldering","tags":["Boulder"]}},{"type":"Feature","geometry":{"type":"Point","coordinates":[2.64767,48.43612]},"properties":{"id":"n4926219283","name":"Apremont Désert","country":"France","countryCode":"FR","region":null,"locality":null,"website":null,"badge":"Climbing spot","stat":"Bouldering","tags":["Boulder"]}},{"type":"Feature","geometry":{"type":"Point","coordinates":[2.63477,48.43844]},"properties":{"id":"n4926219282","name":"Apremont Envers","country":"France","countryCode":"FR","region":null,"locality":null,"website":null,"badge":"Climbing spot","stat":"Bouldering","tags":["Boulder"]}},{"type":"Feature","geometry":{"type":"Point","coordinates":[2.63127,48.43574]},"properties":{"id":"n11265502896","name":"Apremont Est","country":"France","countryCode":"FR","region":null,"locality":null,"website":null,"badge":"Climbing spot","stat":"Bouldering","tags":["Boulder"]}},{"type":"Feature","geometry":{"type":"Point","coordinates":[2.63411,48.4343]},"properties":{"id":"n11265502885","name":"Apremont Fond des Gorges","country":"France","countryCode":"FR","region":null,"locality":null,"website":null,"badge":"Climbing spot","stat":"Bouldering","tags":["Boulder"]}},{"type":"Feature","geometry":{"type":"Point","coordinates":[2.6318,48.43724]},"properties":{"id":"n11265460463","name":"Apremont Haut des Gorges","country":"France","countryCode":"FR","region":null,"locality":null,"website":null,"badge":"Climbing spot","stat":"Bouldering","tags":["Boulder"]}},{"type":"Feature","geometry":{"type":"Point","coordinates":[2.63752,48.43449]},"properties":{"id":"n11265502890","name":"Apremont Mare aux Biches","country":"France","countryCode":"FR","region":null,"locality":null,"website":null,"badge":"Climbing spot","stat":"Bouldering","tags":["Boulder"]}},{"type":"Feature","geometry":{"type":"Point","coordinates":[2.62618,48.43476]},"properties":{"id":"n11265502826","name":"Apremont Marie-Thérèse","country":"France","countryCode":"FR","region":null,"locality":null,"website":null,"badge":"Climbing spot","stat":"Bouldering","tags":["Boulder"]}},{"type":"Feature","geometry":{"type":"Point","coordinates":[2.65434,48.43065]},"properties":{"id":"n11265502840","name":"Apremont Milan","country":"France","countryCode":"FR","region":null,"locality":null,"website":null,"badge":"Climbing spot","stat":"Bouldering","tags":["Boulder"]}},{"type":"Feature","geometry":{"type":"Point","coordinates":[2.62675,48.43768]},"properties":{"id":"n4926225638","name":"Apremont Ouest","country":"France","countryCode":"FR","region":null,"locality":null,"website":null,"badge":"Climbing spot","stat":"Bouldering","tags":["Boulder"]}},{"type":"Feature","geometry":{"type":"Point","coordinates":[2.63817,48.438]},"properties":{"id":"n11265502794","name":"Apremont Portes du Désert","country":"France","countryCode":"FR","region":null,"locality":null,"website":null,"badge":"Climbing spot","stat":"Bouldering","tags":["Boulder"]}},{"type":"Feature","geometry":{"type":"Point","coordinates":[2.65204,48.43222]},"properties":{"id":"n11265502853","name":"Apremont Sanglier","country":"France","countryCode":"FR","region":null,"locality":null,"website":null,"badge":"Climbing spot","stat":"Bouldering","tags":["Boulder"]}},{"type":"Feature","geometry":{"type":"Point","coordinates":[2.63379,48.43641]},"properties":{"id":"n11265502903","name":"Apremont Vallon de la Solitude","country":"France","countryCode":"FR","region":null,"locality":null,"website":null,"badge":"Climbing spot","stat":"Bouldering","tags":["Boulder"]}},{"type":"Feature","geometry":{"type":"Point","coordinates":[2.63113,48.43336]},"properties":{"id":"n11265502849","name":"Apremont Vallon de Sully","country":"France","countryCode":"FR","region":null,"locality":null,"website":null,"badge":"Climbing spot","stat":"Bouldering","tags":["Boulder"]}},{"type":"Feature","geometry":{"type":"Point","coordinates":[5.81283,46.87542]},"properties":{"id":"n8941632271","name":"Arbois","country":"France","countryCode":"FR","region":null,"locality":null,"website":null,"badge":"Climbing spot","stat":"Climbing area","tags":[]}},{"type":"Feature","geometry":{"type":"Point","coordinates":[3.4367,46.11443]},"properties":{"id":"n8596278650","name":"Arcabloc","country":"France","countryCode":"FR","region":null,"locality":"Vichy","website":"https://www.arcabloc.fr/","badge":"Climbing spot","stat":"Bouldering","tags":["Boulder","Indoor"]}},{"type":"Feature","geometry":{"type":"Point","coordinates":[1.55698,44.44149]},"properties":{"id":"n12179671267","name":"Arcambal - Casse noisette","country":"France","countryCode":"FR","region":null,"locality":null,"website":null,"badge":"Climbing spot","stat":"Indoor climbing gym","tags":["Indoor"]}},{"type":"Feature","geometry":{"type":"Point","coordinates":[1.56235,44.43806]},"properties":{"id":"n9876488097","name":"Arcambal - La Banquette","country":"France","countryCode":"FR","region":null,"locality":null,"website":null,"badge":"Climbing spot","stat":"Indoor climbing gym","tags":["Indoor"]}},{"type":"Feature","geometry":{"type":"Point","coordinates":[1.57015,44.43516]},"properties":{"id":"n12179671268","name":"Arcambal - Le Ranch","country":"France","countryCode":"FR","region":null,"locality":null,"website":null,"badge":"Climbing spot","stat":"Indoor climbing gym","tags":["Indoor"]}},{"type":"Feature","geometry":{"type":"Point","coordinates":[1.55633,44.44137]},"properties":{"id":"r14449988","name":"Arcambal Escalade","country":"France","countryCode":"FR","region":null,"locality":null,"website":null,"badge":"Climbing spot","stat":"Sport climbing","tags":["Sport","Limestone"]}},{"type":"Feature","geometry":{"type":"Point","coordinates":[4.82698,47.14782]},"properties":{"id":"w479165429","name":"Arcenant","country":"France","countryCode":"FR","region":null,"locality":null,"website":null,"badge":"Climbing spot","stat":"Natural crag","tags":[]}},{"type":"Feature","geometry":{"type":"Point","coordinates":[9.21282,41.80106]},"properties":{"id":"n4406826271","name":"Arête de Quenza","country":"France","countryCode":"FR","region":null,"locality":null,"website":"https://app.omegaroc.com/topos","badge":"Climbing spot","stat":"Sport climbing","tags":["Trad"]}},{"type":"Feature","geometry":{"type":"Point","coordinates":[9.21375,41.79824]},"properties":{"id":"n4406826273","name":"Arête de Zonza","country":"France","countryCode":"FR","region":null,"locality":null,"website":"https://app.omegaroc.com/topos","badge":"Climbing spot","stat":"Sport climbing","tags":["Trad"]}},{"type":"Feature","geometry":{"type":"Point","coordinates":[9.21445,41.79897]},"properties":{"id":"n11968562954","name":"Arête de Zonza accès via-ferrata","country":"France","countryCode":"FR","region":null,"locality":null,"website":"https://app.omegaroc.com/topos","badge":"Climbing spot","stat":"Sport climbing","tags":["Trad"]}},{"type":"Feature","geometry":{"type":"Point","coordinates":[9.21388,41.79831]},"properties":{"id":"n4406826272","name":"Arête de Zonza variante","country":"France","countryCode":"FR","region":null,"locality":null,"website":"https://app.omegaroc.com/topos","badge":"Climbing spot","stat":"Sport climbing","tags":["Trad"]}},{"type":"Feature","geometry":{"type":"Point","coordinates":[2.95979,43.58961]},"properties":{"id":"n8543287444","name":"Arête des Charbonniers","country":"France","countryCode":"FR","region":null,"locality":null,"website":null,"badge":"Climbing spot","stat":"Climbing area","tags":[]}},{"type":"Feature","geometry":{"type":"Point","coordinates":[2.96868,43.58751]},"properties":{"id":"n8560337856","name":"Arête des Triangles","country":"France","countryCode":"FR","region":null,"locality":null,"website":null,"badge":"Climbing spot","stat":"Climbing area","tags":[]}},{"type":"Feature","geometry":{"type":"Point","coordinates":[5.5792,43.52937]},"properties":{"id":"n10091941392","name":"Arête du Jardin","country":"France","countryCode":"FR","region":null,"locality":null,"website":null,"badge":"Climbing spot","stat":"Trad climbing","tags":["Trad"]}},{"type":"Feature","geometry":{"type":"Point","coordinates":[6.65136,45.63886]},"properties":{"id":"n13283293960","name":"Arête N","country":"France","countryCode":"FR","region":null,"locality":null,"website":null,"badge":"Climbing spot","stat":"Sport climbing","tags":[]}},{"type":"Feature","geometry":{"type":"Point","coordinates":[5.57931,43.53044]},"properties":{"id":"n10091941385","name":"Arête SW de la Croix","country":"France","countryCode":"FR","region":null,"locality":null,"website":null,"badge":"Climbing spot","stat":"Trad climbing","tags":["Trad"]}},{"type":"Feature","geometry":{"type":"Point","coordinates":[2.38931,48.32861]},"properties":{"id":"n11265502781","name":"Argeville","country":"France","countryCode":"FR","region":null,"locality":null,"website":null,"badge":"Climbing spot","stat":"Bouldering","tags":["Boulder"]}},{"type":"Feature","geometry":{"type":"Point","coordinates":[-4.28938,48.23555]},"properties":{"id":"n9386872317","name":"Argol","country":"France","countryCode":"FR","region":null,"locality":null,"website":null,"badge":"Climbing spot","stat":"Climbing area","tags":[]}},{"type":"Feature","geometry":{"type":"Point","coordinates":[-0.57301,44.863]},"properties":{"id":"n5564714840","name":"Arkose","country":"France","countryCode":"FR","region":null,"locality":null,"website":"https://bordeaux.arkose.com/","badge":"Climbing spot","stat":"Bouldering","tags":["Boulder","Indoor"]}},{"type":"Feature","geometry":{"type":"Point","coordinates":[-0.60417,47.47243]},"properties":{"id":"n9476735044","name":"Arkose","country":"France","countryCode":"FR","region":null,"locality":null,"website":null,"badge":"Climbing spot","stat":"Bouldering","tags":["Boulder","Indoor"]}},{"type":"Feature","geometry":{"type":"Point","coordinates":[0.69094,47.43219]},"properties":{"id":"n7947547606","name":"Arkose","country":"France","countryCode":"FR","region":null,"locality":"Tours","website":"https://arkose.com/tours","badge":"Climbing spot","stat":"Indoor climbing gym","tags":["Indoor"]}},{"type":"Feature","geometry":{"type":"Point","coordinates":[1.10498,49.42701]},"properties":{"id":"n8086224715","name":"Arkose","country":"France","countryCode":"FR","region":null,"locality":null,"website":"https://rouen.arkose.com/","badge":"Climbing spot","stat":"Indoor climbing gym","tags":["Indoor"]}},{"type":"Feature","geometry":{"type":"Point","coordinates":[2.36861,48.8335]},"properties":{"id":"n9456207103","name":"Arkose Chevaleret","country":"France","countryCode":"FR","region":null,"locality":"Paris","website":"https://arkose.com/chevaleret","badge":"Climbing spot","stat":"Bouldering","tags":["Boulder","Indoor"]}},{"type":"Feature","geometry":{"type":"Point","coordinates":[2.31504,48.82618]},"properties":{"id":"w975258168","name":"Arkose Didot","country":"France","countryCode":"FR","region":null,"locality":"Paris","website":"https://didot.arkose.com","badge":"Climbing spot","stat":"Bouldering","tags":["Boulder","Indoor"]}},{"type":"Feature","geometry":{"type":"Point","coordinates":[6.27208,46.18509]},"properties":{"id":"r17858268","name":"Arkose Genevois","country":"France","countryCode":"FR","region":null,"locality":"Vétraz-Monthoux","website":"https://arkose.com/genevois","badge":"Climbing spot","stat":"Bouldering","tags":["Boulder","Graded routes","Indoor"]}},{"type":"Feature","geometry":{"type":"Point","coordinates":[2.26244,48.82341]},"properties":{"id":"n463549966","name":"Arkose Issy-les-Moulineaux","country":"France","countryCode":"FR","region":null,"locality":"Issy-les-Moulineaux","website":"https://arkose.com/issy-les-moulineaux-voie","badge":"Climbing spot","stat":"Sport climbing","tags":["Sport","Boulder","Indoor"]}},{"type":"Feature","geometry":{"type":"Point","coordinates":[2.26415,48.82636]},"properties":{"id":"n12165167593","name":"Arkose Issy-les-Moulineaux - Bloc","country":"France","countryCode":"FR","region":null,"locality":"Issy-les-Moulineaux","website":"https://arkose.com/issy-les-moulineaux-bloc","badge":"Climbing spot","stat":"Bouldering","tags":["Boulder","Indoor"]}},{"type":"Feature","geometry":{"type":"Point","coordinates":[3.05601,50.62546]},"properties":{"id":"n7645925303","name":"Arkose Lille","country":"France","countryCode":"FR","region":null,"locality":"Lille","website":"https://arkose.com/lille","badge":"Climbing spot","stat":"Indoor climbing gym","tags":["Indoor"]}},{"type":"Feature","geometry":{"type":"Point","coordinates":[2.33309,48.88687]},"properties":{"id":"n11279574390","name":"Arkose Montmartre","country":"France","countryCode":"FR","region":null,"locality":"Paris","website":null,"badge":"Climbing spot","stat":"Indoor climbing gym","tags":["Indoor"]}},{"type":"Feature","geometry":{"type":"Point","coordinates":[2.41921,48.85165]},"properties":{"id":"n3105289259","name":"Arkose Montreuil","country":"France","countryCode":"FR","region":null,"locality":"Montreuil","website":"https://arkose.com/montreuil","badge":"Climbing spot","stat":"Bouldering","tags":["Boulder","Indoor"]}},{"type":"Feature","geometry":{"type":"Point","coordinates":[2.20112,48.90563]},"properties":{"id":"n11279552225","name":"Arkose Nanterre Arboretum","country":"France","countryCode":"FR","region":null,"locality":null,"website":"https://arkose.com/nanterre-arboretum","badge":"Climbing spot","stat":"Bouldering","tags":["Boulder","Indoor"]}},{"type":"Feature","geometry":{"type":"Point","coordinates":[2.40231,48.85119]},"properties":{"id":"n5104890766","name":"Arkose Nation","country":"France","countryCode":"FR","region":null,"locality":null,"website":"https://arkose.com/nation","badge":"Climbing spot","stat":"Bouldering","tags":["Boulder","Indoor"]}},{"type":"Feature","geometry":{"type":"Point","coordinates":[7.19394,43.70612]},"properties":{"id":"n9410050774","name":"Arkose Nice","country":"France","countryCode":"FR","region":null,"locality":null,"website":"https://arkose.com/nice","badge":"Climbing spot","stat":"Bouldering","tags":["Boulder","Indoor"]}},{"type":"Feature","geometry":{"type":"Point","coordinates":[2.40046,48.90235]},"properties":{"id":"n7275090334","name":"Arkose Pantin","country":"France","countryCode":"FR","region":null,"locality":"Pantin","website":"https://arkose.com/pantin","badge":"Climbing spot","stat":"Bouldering","tags":["Boulder","Indoor"]}},{"type":"Feature","geometry":{"type":"Point","coordinates":[2.40127,48.90291]},"properties":{"id":"n8942657492","name":"Arkose Pantin","country":"France","countryCode":"FR","region":null,"locality":"Pantin","website":"https://arkose.com/pantin","badge":"Climbing spot","stat":"Sport climbing","tags":["Sport","Boulder","32","Graded routes","Indoor"]}},{"type":"Feature","geometry":{"type":"Point","coordinates":[2.2332,48.82904]},"properties":{"id":"n9155195318","name":"Arkose Pont de Sèvres","country":"France","countryCode":"FR","region":null,"locality":"Boulogne-Billancourt","website":"https://pontdesevres.arkose.com/","badge":"Climbing spot","stat":"Sport climbing","tags":["Sport","Boulder","Indoor"]}},{"type":"Feature","geometry":{"type":"Point","coordinates":[2.3548,48.92375]},"properties":{"id":"n12891914406","name":"Arkose Saint-Denis","country":"France","countryCode":"FR","region":null,"locality":null,"website":"https://www.arkose.com/saint-denis","badge":"Climbing spot","stat":"Indoor climbing gym","tags":["Indoor"]}},{"type":"Feature","geometry":{"type":"Point","coordinates":[2.35129,48.87185]},"properties":{"id":"n11228753539","name":"Arkose Strasbourg Saint-Denis","country":"France","countryCode":"FR","region":null,"locality":null,"website":"https://arkose.com/","badge":"Climbing spot","stat":"Climbing area","tags":[]}},{"type":"Feature","geometry":{"type":"Point","coordinates":[1.49203,43.63469]},"properties":{"id":"n7426604642","name":"Arkose Toulouse","country":"France","countryCode":"FR","region":null,"locality":"L'Union","website":null,"badge":"Climbing spot","stat":"Climbing area","tags":[]}},{"type":"Feature","geometry":{"type":"Point","coordinates":[2.94099,42.70203]},"properties":{"id":"n8111298504","name":"Arriba Arriba","country":"France","countryCode":"FR","region":null,"locality":null,"website":null,"badge":"Climbing spot","stat":"Indoor climbing gym","tags":["Indoor"]}},{"type":"Feature","geometry":{"type":"Point","coordinates":[7.19324,43.71024]},"properties":{"id":"n2364930604","name":"Art Bloc","country":"France","countryCode":"FR","region":null,"locality":"Nice","website":"https://www.art-bloc.fr/","badge":"Climbing spot","stat":"Bouldering","tags":["Boulder","Indoor"]}},{"type":"Feature","geometry":{"type":"Point","coordinates":[0.14572,49.48674]},"properties":{"id":"n6357847843","name":"Art'Sport Café","country":"France","countryCode":"FR","region":null,"locality":"Le Havre","website":"https://www.artsportcafe.com/","badge":"Climbing spot","stat":"Climbing area","tags":[]}},{"type":"Feature","geometry":{"type":"Point","coordinates":[2.42446,48.92299]},"properties":{"id":"n9735138532","name":"AS Drancy - section escalade","country":"France","countryCode":"FR","region":null,"locality":null,"website":"https://www.asdrancy.fr/sections/escalade.html","badge":"Climbing spot","stat":"Climbing area","tags":[]}},{"type":"Feature","geometry":{"type":"Point","coordinates":[2.36659,48.97326]},"properties":{"id":"n9735127671","name":"AS Pierrefitte","country":"France","countryCode":"FR","region":null,"locality":"Pierrefitte-sur-Seine","website":"https://www.aspierrefitte.fr/","badge":"Climbing spot","stat":"Climbing area","tags":[]}},{"type":"Feature","geometry":{"type":"Point","coordinates":[5.69996,44.32226]},"properties":{"id":"n9195239639","name":"Ascle pilier ouest","country":"France","countryCode":"FR","region":null,"locality":null,"website":null,"badge":"Climbing spot","stat":"Climbing area","tags":["Multipitch"]}},{"type":"Feature","geometry":{"type":"Point","coordinates":[2.41762,48.86111]},"properties":{"id":"n9660447811","name":"ASG Bagnolet - section escalade","country":"France","countryCode":"FR","region":null,"locality":"Bagnolet","website":"https://escalade-bagnolet-asgb.fr/","badge":"Climbing spot","stat":"Climbing area","tags":[]}},{"type":"Feature","geometry":{"type":"Point","coordinates":[5.67499,45.12289]},"properties":{"id":"n9979253684","name":"Association Claixoise d'Escalade","country":"France","countryCode":"FR","region":null,"locality":"Claix","website":"https://sites.google.com/site/claixvertical/","badge":"Climbing spot","stat":"Climbing area","tags":[]}},{"type":"Feature","geometry":{"type":"Point","coordinates":[1.60788,42.96878]},"properties":{"id":"n3953234905","name":"Association Pandémonium Escalade","country":"France","countryCode":"FR","region":null,"locality":"Foix","website":"http://pandemonium-escalade.fr/","badge":"Climbing spot","stat":"Climbing area","tags":[]}},{"type":"Feature","geometry":{"type":"Point","coordinates":[2.43455,48.90847]},"properties":{"id":"n9660447812","name":"Athlétic Club de Bobigny - section escalade & montagne","country":"France","countryCode":"FR","region":null,"locality":"Bobigny","website":"https://escaladeacb.free.fr","badge":"Climbing spot","stat":"Climbing area","tags":[]}},{"type":"Feature","geometry":{"type":"Point","coordinates":[6.13137,45.90624]},"properties":{"id":"n10217013305","name":"Atome Climbing","country":"France","countryCode":"FR","region":null,"locality":"Annecy","website":"https://www.atome-annecy.fr/","badge":"Climbing spot","stat":"Indoor climbing gym","tags":["Indoor"]}},{"type":"Feature","geometry":{"type":"Point","coordinates":[5.88808,45.27408]},"properties":{"id":"n10079711342","name":"Au Perchoir","country":"France","countryCode":"FR","region":null,"locality":"Crolles","website":"https://auperchoir.fr/","badge":"Climbing spot","stat":"Indoor climbing gym","tags":["Indoor"]}},{"type":"Feature","geometry":{"type":"Point","coordinates":[4.95231,43.72102]},"properties":{"id":"n1956922226","name":"Aureille - La Civadière","country":"France","countryCode":"FR","region":null,"locality":null,"website":null,"badge":"Climbing spot","stat":"Sport climbing","tags":["Sport"]}},{"type":"Feature","geometry":{"type":"Point","coordinates":[5.1747,44.21951]},"properties":{"id":"w442391786","name":"Aussiest","country":"France","countryCode":"FR","region":null,"locality":null,"website":"https://www.thecrag.com/climbing/france/provence-cote-dazur/avignon-provence-area/area/9447430623","badge":"Climbing spot","stat":"Sport climbing","tags":["Sport","Limestone"]}},{"type":"Feature","geometry":{"type":"Point","coordinates":[1.58824,43.77325]},"properties":{"id":"w64273430","name":"Autan Grimper","country":"France","countryCode":"FR","region":null,"locality":null,"website":null,"badge":"Climbing spot","stat":"Indoor climbing gym","tags":["Indoor"]}},{"type":"Feature","geometry":{"type":"Point","coordinates":[2.21196,48.48056]},"properties":{"id":"n11265460447","name":"Auvers-Saint-Georges","country":"France","countryCode":"FR","region":null,"locality":null,"website":null,"badge":"Climbing spot","stat":"Bouldering","tags":["Boulder"]}},{"type":"Feature","geometry":{"type":"Point","coordinates":[1.47463,42.75927]},"properties":{"id":"n7579549985","name":"Auzat - Falaise école","country":"France","countryCode":"FR","region":null,"locality":null,"website":"https://topo-escalade-cafma.fr/sites-escalade/falaise-ecole/","badge":"Climbing spot","stat":"Climbing area","tags":[]}},{"type":"Feature","geometry":{"type":"Point","coordinates":[1.47204,42.75412]},"properties":{"id":"n12179699150","name":"Auzat - Le Far","country":"France","countryCode":"FR","region":null,"locality":null,"website":"https://topo-escalade-cafma.fr/secteur-escalade/le-far/","badge":"Climbing spot","stat":"Climbing area","tags":[]}},{"type":"Feature","geometry":{"type":"Point","coordinates":[1.4732,42.75608]},"properties":{"id":"n12179699149","name":"Auzat - Le Montcalm","country":"France","countryCode":"FR","region":null,"locality":null,"website":"https://topo-escalade-cafma.fr/sites-escalade/le-montcalm/","badge":"Climbing spot","stat":"Climbing area","tags":[]}},{"type":"Feature","geometry":{"type":"Point","coordinates":[1.46196,42.75356]},"properties":{"id":"n3732897121","name":"Auzat - Le Pilier des Vents","country":"France","countryCode":"FR","region":null,"locality":null,"website":"https://topo-escalade-cafma.fr/secteur-escalade/le-pillier-des-vents/","badge":"Climbing spot","stat":"Indoor climbing gym","tags":["Indoor"]}},{"type":"Feature","geometry":{"type":"Point","coordinates":[1.47463,42.75952]},"properties":{"id":"w369522754","name":"Auzat - Secteur Falaise école","country":"France","countryCode":"FR","region":null,"locality":null,"website":null,"badge":"Climbing spot","stat":"Natural crag","tags":[]}},{"type":"Feature","geometry":{"type":"Point","coordinates":[1.47211,42.75437]},"properties":{"id":"w491059649","name":"Auzat - Secteur Far","country":"France","countryCode":"FR","region":null,"locality":null,"website":null,"badge":"Climbing spot","stat":"Natural crag","tags":[]}},{"type":"Feature","geometry":{"type":"Point","coordinates":[1.4728,42.75623]},"properties":{"id":"w491059645","name":"Auzat - Secteur Montcalm","country":"France","countryCode":"FR","region":null,"locality":null,"website":null,"badge":"Climbing spot","stat":"Natural crag","tags":[]}},{"type":"Feature","geometry":{"type":"Point","coordinates":[1.47367,42.75629]},"properties":{"id":"w907995035","name":"Auzat - Secteur Montcalm","country":"France","countryCode":"FR","region":null,"locality":null,"website":null,"badge":"Climbing spot","stat":"Natural crag","tags":[]}},{"type":"Feature","geometry":{"type":"Point","coordinates":[1.45842,42.74648]},"properties":{"id":"n12330519218","name":"Auzat – L’Aqueduc","country":"France","countryCode":"FR","region":null,"locality":null,"website":"https://topo-escalade-cafma.fr/secteur-escalade/aqueduc/","badge":"Climbing spot","stat":"Climbing area","tags":[]}},{"type":"Feature","geometry":{"type":"Point","coordinates":[3.13794,45.79009]},"properties":{"id":"w746973763","name":"B'Up","country":"France","countryCode":"FR","region":null,"locality":null,"website":null,"badge":"Climbing spot","stat":"Indoor climbing gym","tags":["Indoor"]}},{"type":"Feature","geometry":{"type":"Point","coordinates":[3.08917,45.78155]},"properties":{"id":"n11917832706","name":"B'up Delille","country":"France","countryCode":"FR","region":null,"locality":"Clermont-Ferrand","website":null,"badge":"Climbing spot","stat":"Indoor climbing gym","tags":["Indoor"]}},{"type":"Feature","geometry":{"type":"Point","coordinates":[-3.35484,47.77887]},"properties":{"id":"n13527171562","name":"b'wall","country":"France","countryCode":"FR","region":null,"locality":null,"website":"https://www.b-wall.fr/","badge":"Climbing spot","stat":"Indoor climbing gym","tags":["Indoor"]}},{"type":"Feature","geometry":{"type":"Point","coordinates":[-3.35524,47.77846]},"properties":{"id":"n12876706839","name":"B'Wall","country":"France","countryCode":"FR","region":null,"locality":null,"website":"https://www.b-wall.fr/","badge":"Climbing spot","stat":"Climbing area","tags":[]}},{"type":"Feature","geometry":{"type":"Point","coordinates":[-2.76559,47.63809]},"properties":{"id":"w1408470919","name":"B'wall Vannes","country":"France","countryCode":"FR","region":null,"locality":"Vannes","website":"https://www.b-wall.fr/salle-escalade/vannes/","badge":"Climbing spot","stat":"Indoor climbing gym","tags":["Indoor"]}},{"type":"Feature","geometry":{"type":"Point","coordinates":[5.89503,45.73301]},"properties":{"id":"w523454686","name":"Baie de Grésine","country":"France","countryCode":"FR","region":null,"locality":null,"website":"https://www.ffme.fr/sne-fiche/2607/","badge":"Climbing spot","stat":"Sport climbing","tags":["Sport","Limestone","Graded routes"]}},{"type":"Feature","geometry":{"type":"Point","coordinates":[5.8943,45.73276]},"properties":{"id":"w1418296959","name":"Baie Latine","country":"France","countryCode":"FR","region":null,"locality":null,"website":"https://www.ffme.fr/sne-fiche/2607/","badge":"Climbing spot","stat":"Sport climbing","tags":["Sport"]}},{"type":"Feature","geometry":{"type":"Point","coordinates":[-0.45299,42.78114]},"properties":{"id":"n13046709915","name":"Balcones de Anayet","country":"France","countryCode":"FR","region":null,"locality":null,"website":null,"badge":"Climbing spot","stat":"Sport climbing","tags":[]}},{"type":"Feature","geometry":{"type":"Point","coordinates":[2.37743,48.52128]},"properties":{"id":"n11265502852","name":"Ballancourt Mont du Saussay","country":"France","countryCode":"FR","region":null,"locality":null,"website":null,"badge":"Climbing spot","stat":"Bouldering","tags":["Boulder"]}},{"type":"Feature","geometry":{"type":"Point","coordinates":[6.61729,46.05367]},"properties":{"id":"n11831526189","name":"Ballancy","country":"France","countryCode":"FR","region":null,"locality":null,"website":"https://www.escalade-74.com/ballancy/","badge":"Climbing spot","stat":"Climbing area","tags":[]}},{"type":"Feature","geometry":{"type":"Point","coordinates":[7.29413,44.18744]},"properties":{"id":"n13009300297","name":"Banderas - Comet C4 - Jeannot","country":"France","countryCode":"FR","region":null,"locality":null,"website":null,"badge":"Climbing spot","stat":"Natural crag","tags":["Gneiss"]}},{"type":"Feature","geometry":{"type":"Point","coordinates":[6.54091,46.13091]},"properties":{"id":"n7462433829","name":"Baou","country":"France","countryCode":"FR","region":null,"locality":null,"website":null,"badge":"Climbing spot","stat":"Climbing area","tags":["Graded routes"]}},{"type":"Feature","geometry":{"type":"Point","coordinates":[7.13807,43.75027]},"properties":{"id":"n2364935797","name":"Baou de Saint-Jeannet","country":"France","countryCode":"FR","region":null,"locality":null,"website":null,"badge":"Climbing spot","stat":"Climbing area","tags":[]}},{"type":"Feature","geometry":{"type":"Point","coordinates":[7.13472,43.75315]},"properties":{"id":"n2364935796","name":"Baou de Saint-Jeannet : Grotte du Peril Jaune","country":"France","countryCode":"FR","region":null,"locality":null,"website":null,"badge":"Climbing spot","stat":"Climbing area","tags":[]}},{"type":"Feature","geometry":{"type":"Point","coordinates":[5.9155,44.7383]},"properties":{"id":"n13239328771","name":"Barbe Bleu","country":"France","countryCode":"FR","region":null,"locality":null,"website":null,"badge":"Climbing spot","stat":"Sport climbing","tags":["Sport"]}},{"type":"Feature","geometry":{"type":"Point","coordinates":[8.68727,41.91396]},"properties":{"id":"w660947410","name":"Barbicaghja","country":"France","countryCode":"FR","region":null,"locality":null,"website":null,"badge":"Climbing spot","stat":"Sport climbing","tags":["Sport","Multipitch","Granite","Graded routes"]}},{"type":"Feature","geometry":{"type":"Point","coordinates":[7.27563,44.12728]},"properties":{"id":"w967091706","name":"Barre de la Lèche","country":"France","countryCode":"FR","region":null,"locality":null,"website":null,"badge":"Climbing spot","stat":"Climbing area","tags":[]}},{"type":"Feature","geometry":{"type":"Point","coordinates":[9.27386,41.91702]},"properties":{"id":"n13356098231","name":"Bartolo - Face Septs","country":"France","countryCode":"FR","region":null,"locality":null,"website":"https://app.omegaroc.com/topos","badge":"Climbing spot","stat":"Sport climbing","tags":["Sport"]}},{"type":"Feature","geometry":{"type":"Point","coordinates":[9.2737,41.91698]},"properties":{"id":"n13356098230","name":"Bartolo - Mur Sud","country":"France","countryCode":"FR","region":null,"locality":null,"website":"https://app.omegaroc.com/topos","badge":"Climbing spot","stat":"Sport climbing","tags":["Sport"]}},{"type":"Feature","geometry":{"type":"Point","coordinates":[9.27353,41.91695]},"properties":{"id":"n13356098229","name":"Bartolo - Petite Face","country":"France","countryCode":"FR","region":null,"locality":null,"website":"https://app.omegaroc.com/topos","badge":"Climbing spot","stat":"Sport climbing","tags":["Sport"]}},{"type":"Feature","geometry":{"type":"Point","coordinates":[2.63897,48.44707]},"properties":{"id":"n2550313461","name":"Bas Cuvier","country":"France","countryCode":"FR","region":null,"locality":null,"website":null,"badge":"Climbing spot","stat":"Bouldering","tags":["Boulder"]}},{"type":"Feature","geometry":{"type":"Point","coordinates":[5.50782,43.38845]},"properties":{"id":"n8653968085","name":"Bau de l'Aigle","country":"France","countryCode":"FR","region":null,"locality":null,"website":null,"badge":"Climbing spot","stat":"Climbing area","tags":[]}},{"type":"Feature","geometry":{"type":"Point","coordinates":[6.36057,43.73497]},"properties":{"id":"n2937950228","name":"Baume des Cavaliers","country":"France","countryCode":"FR","region":null,"locality":null,"website":null,"badge":"Climbing spot","stat":"Climbing area","tags":[]}},{"type":"Feature","geometry":{"type":"Point","coordinates":[3.8103,43.77861]},"properties":{"id":"n13704385105","name":"Baume des escargots - Pic Saint Loup (escalade)","country":"France","countryCode":"FR","region":null,"locality":null,"website":"https://oblyk.org/crags/721/pic-saint-loup-baume-des-escargots","badge":"Climbing spot","stat":"Climbing area","tags":["Graded routes"]}},{"type":"Feature","geometry":{"type":"Point","coordinates":[5.2027,44.24288]},"properties":{"id":"w378142999","name":"Baume des Eyguiers","country":"France","countryCode":"FR","region":null,"locality":null,"website":"https://www.ffme.fr/site/falaise-fiche/2705.html","badge":"Climbing spot","stat":"Natural crag","tags":[]}},{"type":"Feature","geometry":{"type":"Point","coordinates":[5.23589,44.30144]},"properties":{"id":"w301896456","name":"Baume Noire","country":"France","countryCode":"FR","region":null,"locality":null,"website":null,"badge":"Climbing spot","stat":"Climbing area","tags":[]}},{"type":"Feature","geometry":{"type":"Point","coordinates":[5.28215,44.30233]},"properties":{"id":"n10801206639","name":"Baume Rousse","country":"France","countryCode":"FR","region":null,"locality":null,"website":null,"badge":"Climbing spot","stat":"Sport climbing","tags":["Sport","Multipitch","Limestone"]}},{"type":"Feature","geometry":{"type":"Point","coordinates":[5.28267,44.30181]},"properties":{"id":"n10801206640","name":"Baume Rousse - Initation 1+2","country":"France","countryCode":"FR","region":null,"locality":null,"website":null,"badge":"Climbing spot","stat":"Sport climbing","tags":["Sport","Multipitch","Limestone"]}},{"type":"Feature","geometry":{"type":"Point","coordinates":[5.28313,44.30182]},"properties":{"id":"n10801206641","name":"Baume Rousse - Initation 3","country":"France","countryCode":"FR","region":null,"locality":null,"website":null,"badge":"Climbing spot","stat":"Sport climbing","tags":["Sport","Multipitch","Limestone"]}},{"type":"Feature","geometry":{"type":"Point","coordinates":[5.28149,44.30182]},"properties":{"id":"n10801206638","name":"Baume Rousse - Le Bouclier","country":"France","countryCode":"FR","region":null,"locality":null,"website":null,"badge":"Climbing spot","stat":"Sport climbing","tags":["Sport","Multipitch","Limestone"]}},{"type":"Feature","geometry":{"type":"Point","coordinates":[3.24424,44.3061]},"properties":{"id":"n9455028160","name":"Baumes Basses","country":"France","countryCode":"FR","region":null,"locality":null,"website":null,"badge":"Climbing spot","stat":"Indoor climbing gym","tags":["Indoor"]}},{"type":"Feature","geometry":{"type":"Point","coordinates":[3.24517,44.30626]},"properties":{"id":"w1204768224","name":"Baumes Basses E1","country":"France","countryCode":"FR","region":null,"locality":null,"website":null,"badge":"Climbing spot","stat":"Natural crag","tags":[]}},{"type":"Feature","geometry":{"type":"Point","coordinates":[3.24552,44.30717]},"properties":{"id":"n11165169501","name":"Baumes Basses E4","country":"France","countryCode":"FR","region":null,"locality":null,"website":null,"badge":"Climbing spot","stat":"Indoor climbing gym","tags":["Indoor"]}},{"type":"Feature","geometry":{"type":"Point","coordinates":[3.24146,44.30559]},"properties":{"id":"n9455028161","name":"Baumes Chaudes","country":"France","countryCode":"FR","region":null,"locality":null,"website":null,"badge":"Climbing spot","stat":"Indoor climbing gym","tags":["Indoor"]}},{"type":"Feature","geometry":{"type":"Point","coordinates":[3.25484,44.30687]},"properties":{"id":"n9455028156","name":"Baumes Hautes","country":"France","countryCode":"FR","region":null,"locality":null,"website":null,"badge":"Climbing spot","stat":"Climbing area","tags":[]}},{"type":"Feature","geometry":{"type":"Point","coordinates":[7.39274,43.78227]},"properties":{"id":"n2504765029","name":"Baus Roux","country":"France","countryCode":"FR","region":null,"locality":null,"website":null,"badge":"Climbing spot","stat":"Natural crag","tags":[]}},{"type":"Feature","geometry":{"type":"Point","coordinates":[9.24419,41.82006]},"properties":{"id":"n13064939460","name":"Bavella Circus","country":"France","countryCode":"FR","region":null,"locality":null,"website":null,"badge":"Climbing spot","stat":"Sport climbing","tags":["Indoor"]}},{"type":"Feature","geometry":{"type":"Point","coordinates":[1.59633,42.80399]},"properties":{"id":"n12330519217","name":"Baychon","country":"France","countryCode":"FR","region":null,"locality":null,"website":"https://topo-escalade-cafma.fr/sites-escalade/baychon/","badge":"Climbing spot","stat":"Indoor climbing gym","tags":["Indoor"]}},{"type":"Feature","geometry":{"type":"Point","coordinates":[2.70552,48.24765]},"properties":{"id":"n11265502819","name":"Beauregard","country":"France","countryCode":"FR","region":null,"locality":null,"website":null,"badge":"Climbing spot","stat":"Bouldering","tags":["Boulder"]}},{"type":"Feature","geometry":{"type":"Point","coordinates":[2.47976,48.4997]},"properties":{"id":"n4926417749","name":"Beauvais Solitude","country":"France","countryCode":"FR","region":null,"locality":null,"website":null,"badge":"Climbing spot","stat":"Bouldering","tags":["Boulder"]}},{"type":"Feature","geometry":{"type":"Point","coordinates":[2.51361,48.37437]},"properties":{"id":"n13593492912","name":"Belle Ouvrage / Le Coup Dur","country":"France","countryCode":"FR","region":null,"locality":null,"website":null,"badge":"Climbing spot","stat":"Bouldering","tags":[]}},{"type":"Feature","geometry":{"type":"Point","coordinates":[1.97946,48.71558]},"properties":{"id":"n11244503599","name":"Belle Vue","country":"France","countryCode":"FR","region":null,"locality":null,"website":null,"badge":"Climbing spot","stat":"Bouldering","tags":[]}},{"type":"Feature","geometry":{"type":"Point","coordinates":[5.69363,44.3189]},"properties":{"id":"w722433752","name":"Belleric","country":"France","countryCode":"FR","region":null,"locality":null,"website":"https://www.thecrag.com/en/climbing/france/orpierre/belleric","badge":"Climbing spot","stat":"Sport climbing","tags":["Sport","Multipitch","Limestone"]}},{"type":"Feature","geometry":{"type":"Point","coordinates":[6.22256,44.93676]},"properties":{"id":"n9979356536","name":"Belliou","country":"France","countryCode":"FR","region":null,"locality":null,"website":null,"badge":"Climbing spot","stat":"Indoor climbing gym","tags":["Indoor"]}},{"type":"Feature","geometry":{"type":"Point","coordinates":[6.49714,46.18525]},"properties":{"id":"w346326969","name":"Bellosset","country":"France","countryCode":"FR","region":null,"locality":null,"website":"https://www.escalade-74.com/bellosset/","badge":"Climbing spot","stat":"Natural crag","tags":[]}},{"type":"Feature","geometry":{"type":"Point","coordinates":[5.6441,45.31878]},"properties":{"id":"n4415591089","name":"Belvédére","country":"France","countryCode":"FR","region":null,"locality":null,"website":null,"badge":"Climbing spot","stat":"Natural crag","tags":[]}},{"type":"Feature","geometry":{"type":"Point","coordinates":[8.82203,42.26288]},"properties":{"id":"n2938052165","name":"Belvédère","country":"France","countryCode":"FR","region":null,"locality":null,"website":null,"badge":"Climbing spot","stat":"Climbing area","tags":[]}},{"type":"Feature","geometry":{"type":"Point","coordinates":[6.65076,45.63714]},"properties":{"id":"n13283293958","name":"Bérard-Rigotti","country":"France","countryCode":"FR","region":null,"locality":null,"website":null,"badge":"Climbing spot","stat":"Sport climbing","tags":[]}},{"type":"Feature","geometry":{"type":"Point","coordinates":[1.42958,43.58535]},"properties":{"id":"n8941295796","name":"Berges de la Garonne","country":"France","countryCode":"FR","region":null,"locality":null,"website":null,"badge":"Climbing spot","stat":"Climbing area","tags":[]}},{"type":"Feature","geometry":{"type":"Point","coordinates":[1.42966,43.58542]},"properties":{"id":"r13007115","name":"Berges de la Garonne","country":"France","countryCode":"FR","region":null,"locality":null,"website":null,"badge":"Climbing spot","stat":"Climbing area","tags":[]}},{"type":"Feature","geometry":{"type":"Point","coordinates":[7.22437,47.92272]},"properties":{"id":"n3051536916","name":"Bergholtz","country":"France","countryCode":"FR","region":null,"locality":null,"website":null,"badge":"Climbing spot","stat":"Climbing area","tags":[]}},{"type":"Feature","geometry":{"type":"Point","coordinates":[6.67542,43.96232]},"properties":{"id":"n11780299891","name":"Bestiaire","country":"France","countryCode":"FR","region":null,"locality":null,"website":null,"badge":"Climbing spot","stat":"Climbing area","tags":[]}},{"type":"Feature","geometry":{"type":"Point","coordinates":[-0.31791,43.32425]},"properties":{"id":"n6855836394","name":"Bêta-Bloc","country":"France","countryCode":"FR","region":null,"locality":null,"website":"http://www.beta-bloc.com","badge":"Climbing spot","stat":"Indoor climbing gym","tags":["Indoor"]}},{"type":"Feature","geometry":{"type":"Point","coordinates":[2.96682,43.57608]},"properties":{"id":"n4877677575","name":"Beylot-Ferran","country":"France","countryCode":"FR","region":null,"locality":null,"website":null,"badge":"Climbing spot","stat":"Climbing area","tags":[]}},{"type":"Feature","geometry":{"type":"Point","coordinates":[7.40453,43.73209]},"properties":{"id":"n13328481769","name":"Big Ben","country":"France","countryCode":"FR","region":null,"locality":null,"website":null,"badge":"Climbing spot","stat":"Climbing area","tags":[]}},{"type":"Feature","geometry":{"type":"Point","coordinates":[2.22093,48.9917]},"properties":{"id":"n8018668925","name":"Big Wall Franconville","country":"France","countryCode":"FR","region":null,"locality":null,"website":"https://bigwallfranconville.fr","badge":"Climbing spot","stat":"Indoor climbing gym","tags":["Indoor"]}},{"type":"Feature","geometry":{"type":"Point","coordinates":[9.10226,42.27759]},"properties":{"id":"w1105232342","name":"Bigoudaine","country":"France","countryCode":"FR","region":null,"locality":null,"website":null,"badge":"Climbing spot","stat":"Natural crag","tags":["Granite"]}},{"type":"Feature","geometry":{"type":"Point","coordinates":[5.37664,45.07874]},"properties":{"id":"n11059550784","name":"Bim Bam Boum","country":"France","countryCode":"FR","region":null,"locality":null,"website":null,"badge":"Climbing spot","stat":"Sport climbing","tags":["Multipitch"]}},{"type":"Feature","geometry":{"type":"Point","coordinates":[5.94822,44.49813]},"properties":{"id":"n6761347763","name":"Biographie","country":"France","countryCode":"FR","region":null,"locality":null,"website":null,"badge":"Climbing spot","stat":"Climbing area","tags":[]}},{"type":"Feature","geometry":{"type":"Point","coordinates":[6.74202,45.86659]},"properties":{"id":"n13113025480","name":"Bionnassay","country":"France","countryCode":"FR","region":null,"locality":null,"website":"https://www.escalade-74.com/bionnassay/","badge":"Climbing spot","stat":"Climbing area","tags":[]}},{"type":"Feature","geometry":{"type":"Point","coordinates":[6.82842,44.57096]},"properties":{"id":"n11053383253","name":"Blachière","country":"France","countryCode":"FR","region":null,"locality":null,"website":null,"badge":"Climbing spot","stat":"Trad climbing","tags":["Trad"]}},{"type":"Feature","geometry":{"type":"Point","coordinates":[5.89623,46.3663]},"properties":{"id":"n8521701001","name":"Black Maria","country":"France","countryCode":"FR","region":null,"locality":null,"website":null,"badge":"Climbing spot","stat":"Sport climbing","tags":["Sport","Graded routes"]}},{"type":"Feature","geometry":{"type":"Point","coordinates":[7.40321,43.72994]},"properties":{"id":"n13328434368","name":"Bleue","country":"France","countryCode":"FR","region":null,"locality":null,"website":null,"badge":"Climbing spot","stat":"Climbing area","tags":[]}},{"type":"Feature","geometry":{"type":"Point","coordinates":[5.34548,45.0603]},"properties":{"id":"n9019974101","name":"Bloc","country":"France","countryCode":"FR","region":null,"locality":null,"website":null,"badge":"Climbing spot","stat":"Climbing area","tags":[]}},{"type":"Feature","geometry":{"type":"Point","coordinates":[6.63579,44.89845]},"properties":{"id":"n12116786346","name":"Bloc 027","country":"France","countryCode":"FR","region":null,"locality":"Briançon","website":"https://bloc27.fr","badge":"Climbing spot","stat":"Bouldering","tags":["Boulder","Indoor"]}},{"type":"Feature","geometry":{"type":"Point","coordinates":[2.2699,43.63302]},"properties":{"id":"n9870263359","name":"Bloc a Bloc","country":"France","countryCode":"FR","region":null,"locality":null,"website":"https://blocabloc.net","badge":"Climbing spot","stat":"Indoor climbing gym","tags":["Indoor"]}},{"type":"Feature","geometry":{"type":"Point","coordinates":[5.96798,44.49555]},"properties":{"id":"w717134274","name":"Bloc à Dédé","country":"France","countryCode":"FR","region":null,"locality":null,"website":null,"badge":"Climbing spot","stat":"Climbing area","tags":[]}},{"type":"Feature","geometry":{"type":"Point","coordinates":[5.96638,44.4948]},"properties":{"id":"w717134273","name":"Bloc à Joël","country":"France","countryCode":"FR","region":null,"locality":null,"website":null,"badge":"Climbing spot","stat":"Climbing area","tags":[]}},{"type":"Feature","geometry":{"type":"Point","coordinates":[5.9664,44.49538]},"properties":{"id":"w717134276","name":"Bloc à Philou","country":"France","countryCode":"FR","region":null,"locality":null,"website":null,"badge":"Climbing spot","stat":"Climbing area","tags":[]}},{"type":"Feature","geometry":{"type":"Point","coordinates":[6.61998,44.67137]},"properties":{"id":"n5101047206","name":"Bloc aux Marmotte 1","country":"France","countryCode":"FR","region":null,"locality":null,"website":null,"badge":"Climbing spot","stat":"Climbing area","tags":[]}},{"type":"Feature","geometry":{"type":"Point","coordinates":[6.62022,44.67148]},"properties":{"id":"n5101047207","name":"Bloc aux Marmotte 2","country":"France","countryCode":"FR","region":null,"locality":null,"website":null,"badge":"Climbing spot","stat":"Climbing area","tags":[]}},{"type":"Feature","geometry":{"type":"Point","coordinates":[6.22282,45.29104]},"properties":{"id":"w645596281","name":"Bloc d'escalade","country":"France","countryCode":"FR","region":null,"locality":null,"website":null,"badge":"Climbing spot","stat":"Climbing area","tags":[]}},{"type":"Feature","geometry":{"type":"Point","coordinates":[1.70592,46.82464]},"properties":{"id":"n12607155898","name":"Bloc d'Escalade","country":"France","countryCode":"FR","region":null,"locality":null,"website":null,"badge":"Climbing spot","stat":"Bouldering","tags":["Boulder","Indoor"]}},{"type":"Feature","geometry":{"type":"Point","coordinates":[4.53175,44.05316]},"properties":{"id":"n3699703596","name":"Bloc de la Capelle","country":"France","countryCode":"FR","region":null,"locality":null,"website":null,"badge":"Climbing spot","stat":"Bouldering","tags":[]}},{"type":"Feature","geometry":{"type":"Point","coordinates":[6.1775,46.14833]},"properties":{"id":"n6324891612","name":"Bloc de la Lame","country":"France","countryCode":"FR","region":null,"locality":null,"website":null,"badge":"Climbing spot","stat":"Climbing area","tags":[]}},{"type":"Feature","geometry":{"type":"Point","coordinates":[6.63284,45.9146]},"properties":{"id":"w509752391","name":"Bloc de Medonnet","country":"France","countryCode":"FR","region":null,"locality":null,"website":null,"badge":"Climbing spot","stat":"Bouldering","tags":["Boulder"]}},{"type":"Feature","geometry":{"type":"Point","coordinates":[6.15959,46.13741]},"properties":{"id":"n6324951921","name":"Bloc du Carrousel","country":"France","countryCode":"FR","region":null,"locality":null,"website":"http://www.cactus-sports.ch/topos/topos.html","badge":"Climbing spot","stat":"Climbing area","tags":[]}},{"type":"Feature","geometry":{"type":"Point","coordinates":[6.17911,46.15057]},"properties":{"id":"n6324167030","name":"Bloc du Golf","country":"France","countryCode":"FR","region":null,"locality":null,"website":null,"badge":"Climbing spot","stat":"Climbing area","tags":[]}},{"type":"Feature","geometry":{"type":"Point","coordinates":[7.74541,48.5607]},"properties":{"id":"n11252762455","name":"Bloc en Stock","country":"France","countryCode":"FR","region":null,"locality":"Strasbourg","website":"https://bloc-en-stock.fr/","badge":"Climbing spot","stat":"Indoor climbing gym","tags":["Indoor"]}},{"type":"Feature","geometry":{"type":"Point","coordinates":[6.16302,46.1362]},"properties":{"id":"n6345925123","name":"Bloc l'Alpinodrome","country":"France","countryCode":"FR","region":null,"locality":null,"website":null,"badge":"Climbing spot","stat":"Climbing area","tags":[]}},{"type":"Feature","geometry":{"type":"Point","coordinates":[6.17062,46.142]},"properties":{"id":"n3205119251","name":"Bloc la plaine de l'Ours","country":"France","countryCode":"FR","region":null,"locality":null,"website":null,"badge":"Climbing spot","stat":"Climbing area","tags":[]}},{"type":"Feature","geometry":{"type":"Point","coordinates":[6.16283,46.13558]},"properties":{"id":"n6345933663","name":"Bloc Les fonctionnaires","country":"France","countryCode":"FR","region":null,"locality":null,"website":null,"badge":"Climbing spot","stat":"Climbing area","tags":[]}},{"type":"Feature","geometry":{"type":"Point","coordinates":[4.99411,45.8326]},"properties":{"id":"n10807146999","name":"Bloc session","country":"France","countryCode":"FR","region":null,"locality":null,"website":null,"badge":"Climbing spot","stat":"Indoor climbing gym","tags":["Indoor"]}},{"type":"Feature","geometry":{"type":"Point","coordinates":[6.06037,47.26589]},"properties":{"id":"n12911229739","name":"Bloc session","country":"France","countryCode":"FR","region":null,"locality":null,"website":"https://www.blocsession.com/salle-escalade/bs25/","badge":"Climbing spot","stat":"Indoor climbing gym","tags":["Indoor"]}},{"type":"Feature","geometry":{"type":"Point","coordinates":[4.99399,45.83246]},"properties":{"id":"w1162023288","name":"Bloc session","country":"France","countryCode":"FR","region":null,"locality":null,"website":null,"badge":"Climbing spot","stat":"Indoor climbing gym","tags":["Indoor"]}},{"type":"Feature","geometry":{"type":"Point","coordinates":[5.50342,43.67662]},"properties":{"id":"w1244171808","name":"Bloc session","country":"France","countryCode":"FR","region":null,"locality":"Pertuis","website":"https://www.blocsession.com/salle-escalade/aix-pertuis/","badge":"Climbing spot","stat":"Indoor climbing gym","tags":["Indoor"]}},{"type":"Feature","geometry":{"type":"Point","coordinates":[4.35013,43.8171]},"properties":{"id":"n6768768496","name":"Bloc Session","country":"France","countryCode":"FR","region":null,"locality":null,"website":null,"badge":"Climbing spot","stat":"Indoor climbing gym","tags":["Indoor"]}},{"type":"Feature","geometry":{"type":"Point","coordinates":[7.73112,48.53264]},"properties":{"id":"n9076652615","name":"Bloc Session","country":"France","countryCode":"FR","region":null,"locality":"Illkirch-Graffenstaden","website":"https://www.blocsession.com/salle-escalade/strasbourg/","badge":"Climbing spot","stat":"Indoor climbing gym","tags":["Indoor"]}},{"type":"Feature","geometry":{"type":"Point","coordinates":[6.10134,44.56326]},"properties":{"id":"n9196037002","name":"Bloc Session","country":"France","countryCode":"FR","region":null,"locality":null,"website":"https://www.blocsession.com/salle-escalade/gap/","badge":"Climbing spot","stat":"Bouldering","tags":["Boulder","Indoor"]}},{"type":"Feature","geometry":{"type":"Point","coordinates":[6.20259,48.68444]},"properties":{"id":"n9697173326","name":"Bloc Session","country":"France","countryCode":"FR","region":null,"locality":null,"website":"https://www.blocsession.com/salle-escalade/nancy/","badge":"Climbing spot","stat":"Indoor climbing gym","tags":["Indoor"]}},{"type":"Feature","geometry":{"type":"Point","coordinates":[4.87438,45.53464]},"properties":{"id":"n11582081404","name":"Bloc Session","country":"France","countryCode":"FR","region":null,"locality":null,"website":"https://www.blocsession.com/salle-escalade/vienne/","badge":"Climbing spot","stat":"Bouldering","tags":["Boulder","Indoor"]}},{"type":"Feature","geometry":{"type":"Point","coordinates":[5.43676,43.52763]},"properties":{"id":"n12534830424","name":"Bloc Session","country":"France","countryCode":"FR","region":null,"locality":null,"website":"https://www.blocsession.com/salle-escalade/aix-en-provence/","badge":"Climbing spot","stat":"Bouldering","tags":["Boulder","Indoor"]}},{"type":"Feature","geometry":{"type":"Point","coordinates":[6.85374,47.61558]},"properties":{"id":"n13389491957","name":"Bloc Session","country":"France","countryCode":"FR","region":null,"locality":null,"website":null,"badge":"Climbing spot","stat":"Indoor climbing gym","tags":["Indoor"]}},{"type":"Feature","geometry":{"type":"Point","coordinates":[3.93846,43.57503]},"properties":{"id":"w457008055","name":"Bloc Session","country":"France","countryCode":"FR","region":null,"locality":"Pérols","website":"https://www.blocsession.com/salle-escalade/montpellier","badge":"Climbing spot","stat":"Indoor climbing gym","tags":["Indoor"]}},{"type":"Feature","geometry":{"type":"Point","coordinates":[4.73885,45.75088]},"properties":{"id":"n12786971901","name":"Bloc session - Lyon Craponne","country":"France","countryCode":"FR","region":null,"locality":null,"website":"https://www.blocsession.com/salle-escalade/lyon-craponne/contact/","badge":"Climbing spot","stat":"Indoor climbing gym","tags":["Indoor"]}},{"type":"Feature","geometry":{"type":"Point","coordinates":[4.86062,43.98144]},"properties":{"id":"n11294330760","name":"Bloc Session 6","country":"France","countryCode":"FR","region":null,"locality":null,"website":null,"badge":"Climbing spot","stat":"Indoor climbing gym","tags":["Indoor"]}},{"type":"Feature","geometry":{"type":"Point","coordinates":[8.77891,41.95605]},"properties":{"id":"n13256433700","name":"Bloc Session Ajaccio","country":"France","countryCode":"FR","region":null,"locality":null,"website":"https://www.blocsession.com/salle-escalade/ajaccio/","badge":"Climbing spot","stat":"Bouldering","tags":["Boulder","Indoor"]}},{"type":"Feature","geometry":{"type":"Point","coordinates":[7.83788,48.80225]},"properties":{"id":"n10017665397","name":"Bloc Session Haguenau","country":"France","countryCode":"FR","region":null,"locality":null,"website":"https://www.blocsession.com/salle-escalade/haguenau/","badge":"Climbing spot","stat":"Bouldering","tags":["Boulder","Indoor"]}},{"type":"Feature","geometry":{"type":"Point","coordinates":[4.86837,45.75527]},"properties":{"id":"n4056212926","name":"Bloc Session Lyon Centre","country":"France","countryCode":"FR","region":null,"locality":null,"website":"https://www.blocsession.com/salle-escalade/lyon-centre/","badge":"Climbing spot","stat":"Indoor climbing gym","tags":["Indoor"]}},{"type":"Feature","geometry":{"type":"Point","coordinates":[2.68051,48.87099]},"properties":{"id":"n13694804677","name":"Bloc Session Marne-la-Vallée","country":"France","countryCode":"FR","region":null,"locality":"Lagny-sur-Marne","website":null,"badge":"Climbing spot","stat":"Indoor climbing gym","tags":["Indoor"]}},{"type":"Feature","geometry":{"type":"Point","coordinates":[5.41205,43.29337]},"properties":{"id":"n9457479603","name":"Bloc Session Marseille centre - BS.10","country":"France","countryCode":"FR","region":null,"locality":"Marseille","website":"https://www.blocsession.com/salle-escalade/marseille-centre/","badge":"Climbing spot","stat":"Indoor climbing gym","tags":["Indoor"]}},{"type":"Feature","geometry":{"type":"Point","coordinates":[3.83965,43.64612]},"properties":{"id":"n12084011455","name":"Bloc Session Montpellier Nord","country":"France","countryCode":"FR","region":null,"locality":null,"website":"https://www.blocsession.com/salle-escalade/salle-escalade-montpellier-nord/","badge":"Climbing spot","stat":"Bouldering","tags":["Boulder","Indoor"]}},{"type":"Feature","geometry":{"type":"Point","coordinates":[6.44697,44.89153]},"properties":{"id":"n13077824644","name":"Bloc Surprises","country":"France","countryCode":"FR","region":null,"locality":null,"website":null,"badge":"Climbing spot","stat":"Climbing area","tags":[]}},{"type":"Feature","geometry":{"type":"Point","coordinates":[3.34398,46.54717]},"properties":{"id":"n11497083956","name":"Bloc Zone","country":"France","countryCode":"FR","region":null,"locality":"Yzeure","website":"https://bloc-zone.fr/","badge":"Climbing spot","stat":"Indoor climbing gym","tags":["Indoor"]}},{"type":"Feature","geometry":{"type":"Point","coordinates":[1.47041,43.66393]},"properties":{"id":"w67857807","name":"Bloc'n Roll","country":"France","countryCode":"FR","region":null,"locality":"L'Union","website":"https://blocnroll.fr","badge":"Climbing spot","stat":"Indoor climbing gym","tags":["Indoor"]}},{"type":"Feature","geometry":{"type":"Point","coordinates":[4.37425,45.44192]},"properties":{"id":"n6897579577","name":"Blocabrac","country":"France","countryCode":"FR","region":null,"locality":"Saint-Étienne","website":"https://blocabrac.fr","badge":"Climbing spot","stat":"Bouldering","tags":["Boulder","Indoor"]}},{"type":"Feature","geometry":{"type":"Point","coordinates":[2.25849,48.90604]},"properties":{"id":"n4752600712","name":"Blocbuster","country":"France","countryCode":"FR","region":null,"locality":"Courbevoie","website":"https://blocbuster.fr/","badge":"Climbing spot","stat":"Bouldering","tags":["Boulder","Indoor"]}},{"type":"Feature","geometry":{"type":"Point","coordinates":[2.12519,48.81363]},"properties":{"id":"w74625508","name":"Blocbuster","country":"France","countryCode":"FR","region":null,"locality":"Versailles","website":"https://blocbuster.fr/versailles/","badge":"Climbing spot","stat":"Bouldering","tags":["Boulder","Indoor"]}},{"type":"Feature","geometry":{"type":"Point","coordinates":[2.2452,48.89008]},"properties":{"id":"n11851098255","name":"Blocbuster La Défense","country":"France","countryCode":"FR","region":null,"locality":"Courbevoie","website":"https://blocbuster.fr/la-defense/","badge":"Climbing spot","stat":"Bouldering","tags":["Boulder","Indoor"]}},{"type":"Feature","geometry":{"type":"Point","coordinates":[2.42537,48.61224]},"properties":{"id":"n4730988822","name":"Block Out","country":"France","countryCode":"FR","region":null,"locality":null,"website":"https://www.blockout.fr/bo3-evry","badge":"Climbing spot","stat":"Bouldering","tags":["Boulder","Graded routes","Indoor"]}},{"type":"Feature","geometry":{"type":"Point","coordinates":[0.69444,47.4328]},"properties":{"id":"n5865226205","name":"Block Out","country":"France","countryCode":"FR","region":null,"locality":null,"website":"https://www.blockout.fr/bo-tours","badge":"Climbing spot","stat":"Climbing area","tags":["Indoor"]}},{"type":"Feature","geometry":{"type":"Point","coordinates":[3.11691,50.64827]},"properties":{"id":"n5589858395","name":"Block'out","country":"France","countryCode":"FR","region":null,"locality":null,"website":"https://www.blockout.fr/bo-lille","badge":"Climbing spot","stat":"Indoor climbing gym","tags":["Indoor"]}},{"type":"Feature","geometry":{"type":"Point","coordinates":[-1.61111,47.19885]},"properties":{"id":"n5806405355","name":"Block'Out","country":"France","countryCode":"FR","region":null,"locality":null,"website":"https://www.blockout.fr/bo-nantes","badge":"Climbing spot","stat":"Indoor climbing gym","tags":["Indoor"]}},{"type":"Feature","geometry":{"type":"Point","coordinates":[2.32479,48.91134]},"properties":{"id":"n1966811708","name":"Block'Out","country":"France","countryCode":"FR","region":null,"locality":null,"website":"https://www.blockout.fr/bo2-paris","badge":"Climbing spot","stat":"Bouldering","tags":["Boulder","Indoor"]}},{"type":"Feature","geometry":{"type":"Point","coordinates":[2.07274,49.04982]},"properties":{"id":"n2180962514","name":"Block'Out","country":"France","countryCode":"FR","region":null,"locality":"Osny","website":null,"badge":"Climbing spot","stat":"Indoor climbing gym","tags":["Indoor"]}},{"type":"Feature","geometry":{"type":"Point","coordinates":[7.69934,48.59053]},"properties":{"id":"n2755562691","name":"Block'Out","country":"France","countryCode":"FR","region":null,"locality":null,"website":"http://www.blockout.fr/bo-strasbourg/","badge":"Climbing spot","stat":"Indoor climbing gym","tags":["Indoor"]}},{"type":"Feature","geometry":{"type":"Point","coordinates":[4.08601,49.24095]},"properties":{"id":"n13440651883","name":"Block'Out","country":"France","countryCode":"FR","region":null,"locality":"Reims","website":"https://www.blockout.fr/reims","badge":"Climbing spot","stat":"Indoor climbing gym","tags":["Indoor"]}},{"type":"Feature","geometry":{"type":"Point","coordinates":[-0.5478,44.88812]},"properties":{"id":"n5014451856","name":"Block'Out Bordeaux","country":"France","countryCode":"FR","region":null,"locality":null,"website":null,"badge":"Climbing spot","stat":"Bouldering","tags":["Boulder","Indoor"]}},{"type":"Feature","geometry":{"type":"Point","coordinates":[4.77173,45.80659]},"properties":{"id":"w129893005","name":"Block'Out Lyon","country":"France","countryCode":"FR","region":null,"locality":"Limonest","website":"https://www.blockout.fr/bo-lyon","badge":"Climbing spot","stat":"Bouldering","tags":["Boulder","Indoor"]}},{"type":"Feature","geometry":{"type":"Point","coordinates":[6.10539,49.07403]},"properties":{"id":"n5359211421","name":"Block'Out Metz","country":"France","countryCode":"FR","region":null,"locality":null,"website":null,"badge":"Climbing spot","stat":"Indoor climbing gym","tags":["Indoor"]}},{"type":"Feature","geometry":{"type":"Point","coordinates":[-1.63189,48.10434]},"properties":{"id":"w81780043","name":"Block’out Rennes","country":"France","countryCode":"FR","region":null,"locality":"Cesson-Sévigné","website":null,"badge":"Climbing spot","stat":"Bouldering","tags":["Boulder","Indoor"]}},{"type":"Feature","geometry":{"type":"Point","coordinates":[1.41251,43.63175]},"properties":{"id":"n6387389876","name":"Block'Out Toulouse","country":"France","countryCode":"FR","region":null,"locality":null,"website":"https://www.blockout.fr/bo-toulouse","badge":"Climbing spot","stat":"Indoor climbing gym","tags":["Indoor"]}},{"type":"Feature","geometry":{"type":"Point","coordinates":[5.26492,43.42829]},"properties":{"id":"n11078547417","name":"Block'Out Vitrolles","country":"France","countryCode":"FR","region":null,"locality":"Vitrolles","website":"https://www.blockout.fr/bo-vitrolles/","badge":"Climbing spot","stat":"Bouldering","tags":["Boulder","Indoor"]}},{"type":"Feature","geometry":{"type":"Point","coordinates":[2.26964,48.72272]},"properties":{"id":"w70665205","name":"Blocpark Arkose","country":"France","countryCode":"FR","region":null,"locality":null,"website":"https://massy.arkose.com/","badge":"Climbing spot","stat":"Bouldering","tags":["Boulder","Indoor"]}},{"type":"Feature","geometry":{"type":"Point","coordinates":[6.16683,46.1402]},"properties":{"id":"n7731640131","name":"Blocs à Ralf","country":"France","countryCode":"FR","region":null,"locality":null,"website":null,"badge":"Climbing spot","stat":"Climbing area","tags":[]}},{"type":"Feature","geometry":{"type":"Point","coordinates":[6.94847,45.30088]},"properties":{"id":"w435152185","name":"Blocs de la Madeleine","country":"France","countryCode":"FR","region":null,"locality":null,"website":null,"badge":"Climbing spot","stat":"Sport climbing","tags":["Sport","Boulder","Schist","Graded routes"]}},{"type":"Feature","geometry":{"type":"Point","coordinates":[6.60108,46.04825]},"properties":{"id":"w515479054","name":"Blocs de la Maladière","country":"France","countryCode":"FR","region":null,"locality":null,"website":null,"badge":"Climbing spot","stat":"Bouldering","tags":["Boulder"]}},{"type":"Feature","geometry":{"type":"Point","coordinates":[1.54955,42.78378]},"properties":{"id":"n5795029644","name":"Blocs de Laramade","country":"France","countryCode":"FR","region":null,"locality":null,"website":null,"badge":"Climbing spot","stat":"Climbing area","tags":[]}},{"type":"Feature","geometry":{"type":"Point","coordinates":[6.4815,44.98985]},"properties":{"id":"n12118795424","name":"Blocs du Casset","country":"France","countryCode":"FR","region":null,"locality":null,"website":null,"badge":"Climbing spot","stat":"Climbing area","tags":[]}},{"type":"Feature","geometry":{"type":"Point","coordinates":[6.1678,46.14103]},"properties":{"id":"n7731566830","name":"Blocs Nounours","country":"France","countryCode":"FR","region":null,"locality":null,"website":null,"badge":"Climbing spot","stat":"Climbing area","tags":[]}},{"type":"Feature","geometry":{"type":"Point","coordinates":[2.57774,48.29511]},"properties":{"id":"n11265502785","name":"Blomont les Roches","country":"France","countryCode":"FR","region":null,"locality":null,"website":null,"badge":"Climbing spot","stat":"Bouldering","tags":["Boulder"]}},{"type":"Feature","geometry":{"type":"Point","coordinates":[8.82483,42.28078]},