{"type":"FeatureCollection","features":[{"type":"Feature","geometry":{"type":"Point","coordinates":[-8.48415,41.14686]},"properties":{"id":"n12973252291","name":"?","country":"Portugal","countryCode":"PT","region":null,"locality":null,"website":null,"badge":"Climbing spot","stat":"Sport climbing","tags":[]}},{"type":"Feature","geometry":{"type":"Point","coordinates":[-8.42874,40.87775]},"properties":{"id":"n12974200897","name":"30 brocas","country":"Portugal","countryCode":"PT","region":null,"locality":null,"website":null,"badge":"Climbing spot","stat":"Sport climbing","tags":[]}},{"type":"Feature","geometry":{"type":"Point","coordinates":[-9.12555,38.78429]},"properties":{"id":"n12177125032","name":"9.8 Gravity","country":"Portugal","countryCode":"PT","region":null,"locality":null,"website":"https://www.98gravity.pt/","badge":"Climbing spot","stat":"Indoor climbing gym","tags":["Indoor"]}},{"type":"Feature","geometry":{"type":"Point","coordinates":[-9.07309,38.43675]},"properties":{"id":"w895345076","name":"Admirável Mundo Novo - Sector Antigo","country":"Portugal","countryCode":"PT","region":null,"locality":null,"website":null,"badge":"Climbing spot","stat":"Trad climbing","tags":["Trad","Limestone","Graded routes"]}},{"type":"Feature","geometry":{"type":"Point","coordinates":[-9.08141,38.43804]},"properties":{"id":"w1422348466","name":"Admirável Mundo Novo - Sectores Novos","country":"Portugal","countryCode":"PT","region":null,"locality":null,"website":null,"badge":"Climbing spot","stat":"Natural crag","tags":["Limestone"]}},{"type":"Feature","geometry":{"type":"Point","coordinates":[-9.44703,38.69515]},"properties":{"id":"w1062208375","name":"Alcatifa","country":"Portugal","countryCode":"PT","region":null,"locality":null,"website":null,"badge":"Climbing spot","stat":"Natural crag","tags":["Limestone","Graded routes"]}},{"type":"Feature","geometry":{"type":"Point","coordinates":[-8.23145,41.04689]},"properties":{"id":"n12339849057","name":"Algoritmo","country":"Portugal","countryCode":"PT","region":null,"locality":null,"website":null,"badge":"Climbing spot","stat":"Sport climbing","tags":[]}},{"type":"Feature","geometry":{"type":"Point","coordinates":[-9.30406,38.76469]},"properties":{"id":"n11284759292","name":"Altissimo Escalada","country":"Portugal","countryCode":"PT","region":null,"locality":null,"website":"https://altissimo.pt/","badge":"Climbing spot","stat":"Climbing area","tags":[]}},{"type":"Feature","geometry":{"type":"Point","coordinates":[-8.98267,38.48024]},"properties":{"id":"w989741278","name":"Amarelas","country":"Portugal","countryCode":"PT","region":null,"locality":null,"website":null,"badge":"Climbing spot","stat":"Natural crag","tags":["Limestone","Graded routes"]}},{"type":"Feature","geometry":{"type":"Point","coordinates":[-8.42882,40.87793]},"properties":{"id":"n12974224601","name":"Antuã","country":"Portugal","countryCode":"PT","region":null,"locality":null,"website":null,"badge":"Climbing spot","stat":"Sport climbing","tags":[]}},{"type":"Feature","geometry":{"type":"Point","coordinates":[-8.4841,41.14688]},"properties":{"id":"n12973252293","name":"As brumas de avalongo","country":"Portugal","countryCode":"PT","region":null,"locality":null,"website":null,"badge":"Climbing spot","stat":"Sport climbing","tags":[]}},{"type":"Feature","geometry":{"type":"Point","coordinates":[-9.2185,38.41316]},"properties":{"id":"r17099644","name":"Atlântida","country":"Portugal","countryCode":"PT","region":null,"locality":null,"website":null,"badge":"Climbing spot","stat":"Sport climbing","tags":["Sport"]}},{"type":"Feature","geometry":{"type":"Point","coordinates":[-8.48409,41.14689]},"properties":{"id":"n12973252294","name":"Badalhoca","country":"Portugal","countryCode":"PT","region":null,"locality":null,"website":null,"badge":"Climbing spot","stat":"Sport climbing","tags":[]}},{"type":"Feature","geometry":{"type":"Point","coordinates":[-9.21208,38.41248]},"properties":{"id":"w903536133","name":"Baía","country":"Portugal","countryCode":"PT","region":null,"locality":null,"website":null,"badge":"Climbing spot","stat":"Sport climbing","tags":["Sport","Limestone","Graded routes"]}},{"type":"Feature","geometry":{"type":"Point","coordinates":[-9.47947,38.75676]},"properties":{"id":"w1060669501","name":"Baía do Terramoto","country":"Portugal","countryCode":"PT","region":null,"locality":null,"website":null,"badge":"Climbing spot","stat":"Natural crag","tags":["Granite"]}},{"type":"Feature","geometry":{"type":"Point","coordinates":[-9.4941,38.77124]},"properties":{"id":"w1060650595","name":"Baía do Terror","country":"Portugal","countryCode":"PT","region":null,"locality":null,"website":null,"badge":"Climbing spot","stat":"Natural crag","tags":["Granite","Graded routes"]}},{"type":"Feature","geometry":{"type":"Point","coordinates":[-8.43285,41.1277]},"properties":{"id":"n12343221911","name":"Bailinho da Madeira","country":"Portugal","countryCode":"PT","region":null,"locality":null,"website":null,"badge":"Climbing spot","stat":"Sport climbing","tags":[]}},{"type":"Feature","geometry":{"type":"Point","coordinates":[-9.08912,38.43983]},"properties":{"id":"w1423494624","name":"Barraca","country":"Portugal","countryCode":"PT","region":null,"locality":null,"website":null,"badge":"Climbing spot","stat":"Natural crag","tags":[]}},{"type":"Feature","geometry":{"type":"Point","coordinates":[-9.22141,38.41309]},"properties":{"id":"w1244173724","name":"Bilfa","country":"Portugal","countryCode":"PT","region":null,"locality":null,"website":null,"badge":"Climbing spot","stat":"Natural crag","tags":["Limestone","Graded routes"]}},{"type":"Feature","geometry":{"type":"Point","coordinates":[-9.22143,38.41329]},"properties":{"id":"w1244173727","name":"Bilfa de Cima","country":"Portugal","countryCode":"PT","region":null,"locality":null,"website":null,"badge":"Climbing spot","stat":"Natural crag","tags":["Limestone","Graded routes"]}},{"type":"Feature","geometry":{"type":"Point","coordinates":[-9.44722,38.69522]},"properties":{"id":"w1062208376","name":"Bloco","country":"Portugal","countryCode":"PT","region":null,"locality":null,"website":null,"badge":"Climbing spot","stat":"Natural crag","tags":["Limestone","Graded routes"]}},{"type":"Feature","geometry":{"type":"Point","coordinates":[-9.44746,38.69525]},"properties":{"id":"w1062208378","name":"Bloco Escadas","country":"Portugal","countryCode":"PT","region":null,"locality":null,"website":null,"badge":"Climbing spot","stat":"Natural crag","tags":["Limestone","Graded routes"]}},{"type":"Feature","geometry":{"type":"Point","coordinates":[-9.49395,38.76956]},"properties":{"id":"w1274423275","name":"Bloco Superior","country":"Portugal","countryCode":"PT","region":null,"locality":null,"website":null,"badge":"Climbing spot","stat":"Natural crag","tags":["Granite","Graded routes"]}},{"type":"Feature","geometry":{"type":"Point","coordinates":[-8.23149,41.04693]},"properties":{"id":"n12339849064","name":"Bola de Cristal","country":"Portugal","countryCode":"PT","region":null,"locality":null,"website":null,"badge":"Climbing spot","stat":"Sport climbing","tags":[]}},{"type":"Feature","geometry":{"type":"Point","coordinates":[-8.23146,41.04691]},"properties":{"id":"n12339849060","name":"Borda d'Água","country":"Portugal","countryCode":"PT","region":null,"locality":null,"website":null,"badge":"Climbing spot","stat":"Sport climbing","tags":[]}},{"type":"Feature","geometry":{"type":"Point","coordinates":[-8.84129,38.58276]},"properties":{"id":"w906879890","name":"Boulder do Morcego","country":"Portugal","countryCode":"PT","region":null,"locality":null,"website":null,"badge":"Climbing spot","stat":"Bouldering","tags":["Boulder","Indoor"]}},{"type":"Feature","geometry":{"type":"Point","coordinates":[-8.43395,41.12753]},"properties":{"id":"n12973018185","name":"Brutus","country":"Portugal","countryCode":"PT","region":null,"locality":null,"website":null,"badge":"Climbing spot","stat":"Sport climbing","tags":[]}},{"type":"Feature","geometry":{"type":"Point","coordinates":[-9.13683,38.4298]},"properties":{"id":"w1020669282","name":"Buíacos","country":"Portugal","countryCode":"PT","region":null,"locality":null,"website":null,"badge":"Climbing spot","stat":"Natural crag","tags":["Limestone","Graded routes"]}},{"type":"Feature","geometry":{"type":"Point","coordinates":[-8.23142,41.04688]},"properties":{"id":"n12339849053","name":"Cá t’Espero","country":"Portugal","countryCode":"PT","region":null,"locality":null,"website":null,"badge":"Climbing spot","stat":"Sport climbing","tags":[]}},{"type":"Feature","geometry":{"type":"Point","coordinates":[-8.2315,41.04694]},"properties":{"id":"n12339849066","name":"Cabeça de Rádio","country":"Portugal","countryCode":"PT","region":null,"locality":null,"website":null,"badge":"Climbing spot","stat":"Sport climbing","tags":["Boulder"]}},{"type":"Feature","geometry":{"type":"Point","coordinates":[-9.21066,38.41205]},"properties":{"id":"w903536131","name":"Cabo da Boa Esperança","country":"Portugal","countryCode":"PT","region":null,"locality":null,"website":null,"badge":"Climbing spot","stat":"Natural crag","tags":["Limestone","Graded routes"]}},{"type":"Feature","geometry":{"type":"Point","coordinates":[-8.43397,41.12753]},"properties":{"id":"n12973018192","name":"Calígula","country":"Portugal","countryCode":"PT","region":null,"locality":null,"website":null,"badge":"Climbing spot","stat":"Sport climbing","tags":[]}},{"type":"Feature","geometry":{"type":"Point","coordinates":[-8.42873,40.87757]},"properties":{"id":"n12974200890","name":"Cano Cheio","country":"Portugal","countryCode":"PT","region":null,"locality":null,"website":null,"badge":"Climbing spot","stat":"Sport climbing","tags":[]}},{"type":"Feature","geometry":{"type":"Point","coordinates":[-9.44653,38.69494]},"properties":{"id":"w1062208372","name":"Cantinho dos Teimosos","country":"Portugal","countryCode":"PT","region":null,"locality":null,"website":null,"badge":"Climbing spot","stat":"Natural crag","tags":["Limestone","Graded routes"]}},{"type":"Feature","geometry":{"type":"Point","coordinates":[-9.438,38.89305]},"properties":{"id":"w391385347","name":"Canto Noroeste","country":"Portugal","countryCode":"PT","region":null,"locality":null,"website":null,"badge":"Climbing spot","stat":"Natural crag","tags":["Basalt","Graded routes"]}},{"type":"Feature","geometry":{"type":"Point","coordinates":[-9.43834,38.89266]},"properties":{"id":"w1107121845","name":"Canto Sul","country":"Portugal","countryCode":"PT","region":null,"locality":null,"website":null,"badge":"Climbing spot","stat":"Natural crag","tags":["Basalt","Graded routes"]}},{"type":"Feature","geometry":{"type":"Point","coordinates":[-8.23147,41.04691]},"properties":{"id":"n12339849061","name":"CapriSun","country":"Portugal","countryCode":"PT","region":null,"locality":null,"website":null,"badge":"Climbing spot","stat":"Sport climbing","tags":[]}},{"type":"Feature","geometry":{"type":"Point","coordinates":[-8.43283,41.12767]},"properties":{"id":"n12343221909","name":"Caravela 1","country":"Portugal","countryCode":"PT","region":null,"locality":null,"website":null,"badge":"Climbing spot","stat":"Sport climbing","tags":[]}},{"type":"Feature","geometry":{"type":"Point","coordinates":[-8.43284,41.12769]},"properties":{"id":"n12343221910","name":"Caravela 2","country":"Portugal","countryCode":"PT","region":null,"locality":null,"website":null,"badge":"Climbing spot","stat":"Sport climbing","tags":[]}},{"type":"Feature","geometry":{"type":"Point","coordinates":[-8.42879,40.87792]},"properties":{"id":"n12974200899","name":"Carregosa","country":"Portugal","countryCode":"PT","region":null,"locality":null,"website":null,"badge":"Climbing spot","stat":"Sport climbing","tags":[]}},{"type":"Feature","geometry":{"type":"Point","coordinates":[-9.4381,38.89203]},"properties":{"id":"r14734827","name":"Casal Pianos","country":"Portugal","countryCode":"PT","region":null,"locality":null,"website":null,"badge":"Climbing spot","stat":"Trad climbing","tags":["Trad","Basalt"]}},{"type":"Feature","geometry":{"type":"Point","coordinates":[-7.59327,40.32944]},"properties":{"id":"w1069915917","name":"Cascata Musical","country":"Portugal","countryCode":"PT","region":null,"locality":null,"website":null,"badge":"Climbing spot","stat":"Natural crag","tags":["Granite","Graded routes"]}},{"type":"Feature","geometry":{"type":"Point","coordinates":[-8.28206,41.58654]},"properties":{"id":"n12351869205","name":"Casino da Povoa","country":"Portugal","countryCode":"PT","region":null,"locality":null,"website":null,"badge":"Climbing spot","stat":"Sport climbing","tags":[]}},{"type":"Feature","geometry":{"type":"Point","coordinates":[-9.18154,38.79431]},"properties":{"id":"w510218836","name":"Castelinho","country":"Portugal","countryCode":"PT","region":null,"locality":null,"website":null,"badge":"Climbing spot","stat":"Indoor climbing gym","tags":["Indoor"]}},{"type":"Feature","geometry":{"type":"Point","coordinates":[-9.01541,38.45502]},"properties":{"id":"w895090676","name":"Central","country":"Portugal","countryCode":"PT","region":null,"locality":null,"website":null,"badge":"Climbing spot","stat":"Natural crag","tags":["Limestone","Graded routes"]}},{"type":"Feature","geometry":{"type":"Point","coordinates":[-8.43395,41.12753]},"properties":{"id":"n12973018186","name":"Cleptomania","country":"Portugal","countryCode":"PT","region":null,"locality":null,"website":null,"badge":"Climbing spot","stat":"Sport climbing","tags":[]}},{"type":"Feature","geometry":{"type":"Point","coordinates":[-8.09946,37.25421]},"properties":{"id":"n4476725455","name":"Climbing sector Petra","country":"Portugal","countryCode":"PT","region":null,"locality":null,"website":null,"badge":"Climbing spot","stat":"Climbing area","tags":[]}},{"type":"Feature","geometry":{"type":"Point","coordinates":[-9.1816,38.42289]},"properties":{"id":"w691546470","name":"Condomínio Fechado","country":"Portugal","countryCode":"PT","region":null,"locality":null,"website":null,"badge":"Climbing spot","stat":"Natural crag","tags":["Limestone","Graded routes"]}},{"type":"Feature","geometry":{"type":"Point","coordinates":[-8.43398,41.12753]},"properties":{"id":"n12973018195","name":"Corcovado","country":"Portugal","countryCode":"PT","region":null,"locality":null,"website":null,"badge":"Climbing spot","stat":"Sport climbing","tags":[]}},{"type":"Feature","geometry":{"type":"Point","coordinates":[-7.59866,40.32695]},"properties":{"id":"w1023422295","name":"Corredor dos Mercadores","country":"Portugal","countryCode":"PT","region":null,"locality":null,"website":null,"badge":"Climbing spot","stat":"Climbing area","tags":[]}},{"type":"Feature","geometry":{"type":"Point","coordinates":[-9.44665,38.69499]},"properties":{"id":"w1062208373","name":"Corta Unhas","country":"Portugal","countryCode":"PT","region":null,"locality":null,"website":null,"badge":"Climbing spot","stat":"Natural crag","tags":["Limestone","Graded routes"]}},{"type":"Feature","geometry":{"type":"Point","coordinates":[-8.23148,41.04692]},"properties":{"id":"n12339849062","name":"Costela de Anão","country":"Portugal","countryCode":"PT","region":null,"locality":null,"website":null,"badge":"Climbing spot","stat":"Sport climbing","tags":[]}},{"type":"Feature","geometry":{"type":"Point","coordinates":[-8.42875,40.87773]},"properties":{"id":"n12974200896","name":"Cota mas não muito","country":"Portugal","countryCode":"PT","region":null,"locality":null,"website":null,"badge":"Climbing spot","stat":"Sport climbing","tags":[]}},{"type":"Feature","geometry":{"type":"Point","coordinates":[-9.13523,38.43011]},"properties":{"id":"w943954745","name":"Cova da Areia","country":"Portugal","countryCode":"PT","region":null,"locality":null,"website":null,"badge":"Climbing spot","stat":"Natural crag","tags":["Limestone","Graded routes"]}},{"type":"Feature","geometry":{"type":"Point","coordinates":[-9.136,38.42993]},"properties":{"id":"w943954747","name":"Cova das Ovelhas","country":"Portugal","countryCode":"PT","region":null,"locality":null,"website":null,"badge":"Climbing spot","stat":"Natural crag","tags":["Limestone","Graded routes"]}},{"type":"Feature","geometry":{"type":"Point","coordinates":[-9.17624,38.42707]},"properties":{"id":"w887860619","name":"Cova Mijona","country":"Portugal","countryCode":"PT","region":null,"locality":null,"website":null,"badge":"Climbing spot","stat":"Natural crag","tags":["Limestone","Graded routes"]}},{"type":"Feature","geometry":{"type":"Point","coordinates":[-8.22269,41.97546]},"properties":{"id":"r18283792","name":"Crag with wooden terrace","country":"Portugal","countryCode":"PT","region":null,"locality":null,"website":null,"badge":"Climbing spot","stat":"Climbing area","tags":[]}},{"type":"Feature","geometry":{"type":"Point","coordinates":[-8.91121,38.5704]},"properties":{"id":"n8116862445","name":"Crazy Boulder","country":"Portugal","countryCode":"PT","region":null,"locality":null,"website":null,"badge":"Climbing spot","stat":"Indoor climbing gym","tags":["Indoor"]}},{"type":"Feature","geometry":{"type":"Point","coordinates":[-8.93585,38.49026]},"properties":{"id":"w876307547","name":"Creta","country":"Portugal","countryCode":"PT","region":null,"locality":null,"website":null,"badge":"Climbing spot","stat":"Natural crag","tags":["Limestone","Graded routes"]}},{"type":"Feature","geometry":{"type":"Point","coordinates":[-8.98459,38.47846]},"properties":{"id":"w989741288","name":"Crocodilos","country":"Portugal","countryCode":"PT","region":null,"locality":null,"website":null,"badge":"Climbing spot","stat":"Natural crag","tags":["Limestone","Graded routes"]}},{"type":"Feature","geometry":{"type":"Point","coordinates":[-8.98376,38.47936]},"properties":{"id":"r13291484","name":"Cú de Judas","country":"Portugal","countryCode":"PT","region":null,"locality":null,"website":null,"badge":"Climbing spot","stat":"Natural crag","tags":["Limestone","Graded routes"]}},{"type":"Feature","geometry":{"type":"Point","coordinates":[-8.4329,41.12777]},"properties":{"id":"n12343221918","name":"Cunochão","country":"Portugal","countryCode":"PT","region":null,"locality":null,"website":null,"badge":"Climbing spot","stat":"Sport climbing","tags":[]}},{"type":"Feature","geometry":{"type":"Point","coordinates":[-8.43394,41.12753]},"properties":{"id":"n12973018184","name":"Défice Orçamental","country":"Portugal","countryCode":"PT","region":null,"locality":null,"website":null,"badge":"Climbing spot","stat":"Sport climbing","tags":["Graded routes"]}},{"type":"Feature","geometry":{"type":"Point","coordinates":[-9.20947,38.41184]},"properties":{"id":"w903536128","name":"Degraus","country":"Portugal","countryCode":"PT","region":null,"locality":null,"website":null,"badge":"Climbing spot","stat":"Natural crag","tags":["Limestone","Graded routes"]}},{"type":"Feature","geometry":{"type":"Point","coordinates":[-9.08775,38.43891]},"properties":{"id":"w876362364","name":"Dente de Leão","country":"Portugal","countryCode":"PT","region":null,"locality":null,"website":null,"badge":"Climbing spot","stat":"Natural crag","tags":["Limestone","Graded routes"]}},{"type":"Feature","geometry":{"type":"Point","coordinates":[-9.13656,38.42928]},"properties":{"id":"w942931967","name":"Dentinho do Gatinho","country":"Portugal","countryCode":"PT","region":null,"locality":null,"website":null,"badge":"Climbing spot","stat":"Natural crag","tags":["Limestone","Graded routes"]}},{"type":"Feature","geometry":{"type":"Point","coordinates":[-8.43398,41.12753]},"properties":{"id":"n12973018194","name":"Dia de S.Receber","country":"Portugal","countryCode":"PT","region":null,"locality":null,"website":null,"badge":"Climbing spot","stat":"Sport climbing","tags":[]}},{"type":"Feature","geometry":{"type":"Point","coordinates":[-9.09069,38.44037]},"properties":{"id":"w1423494615","name":"Diamante","country":"Portugal","countryCode":"PT","region":null,"locality":null,"website":null,"badge":"Climbing spot","stat":"Climbing area","tags":[]}},{"type":"Feature","geometry":{"type":"Point","coordinates":[-9.01563,38.45483]},"properties":{"id":"w895090673","name":"Diedro","country":"Portugal","countryCode":"PT","region":null,"locality":null,"website":null,"badge":"Climbing spot","stat":"Natural crag","tags":["Limestone","Graded routes"]}},{"type":"Feature","geometry":{"type":"Point","coordinates":[-8.28206,41.58652]},"properties":{"id":"n12351869204","name":"Diedro dos Alcaides","country":"Portugal","countryCode":"PT","region":null,"locality":null,"website":null,"badge":"Climbing spot","stat":"Sport climbing","tags":[]}},{"type":"Feature","geometry":{"type":"Point","coordinates":[-8.28195,41.58597]},"properties":{"id":"r18339489","name":"Diedro Pachego + Placa de iniação","country":"Portugal","countryCode":"PT","region":null,"locality":null,"website":"https://fpme.org/webpu/images/Topos_Guias/Monte_Pilar/Croquis-povoa-lanhoso-Monte%20Pilar02.jpg","badge":"Climbing spot","stat":"Climbing area","tags":[]}},{"type":"Feature","geometry":{"type":"Point","coordinates":[-8.43287,41.12771]},"properties":{"id":"n12343221912","name":"Directa Dedos","country":"Portugal","countryCode":"PT","region":null,"locality":null,"website":null,"badge":"Climbing spot","stat":"Sport climbing","tags":[]}},{"type":"Feature","geometry":{"type":"Point","coordinates":[-8.48409,41.14697]},"properties":{"id":"n12973252300","name":"Disparates","country":"Portugal","countryCode":"PT","region":null,"locality":null,"website":null,"badge":"Climbing spot","stat":"Sport climbing","tags":[]}},{"type":"Feature","geometry":{"type":"Point","coordinates":[-8.42873,40.87753]},"properties":{"id":"n12974200887","name":"Dor de Cotovelo","country":"Portugal","countryCode":"PT","region":null,"locality":null,"website":null,"badge":"Climbing spot","stat":"Sport climbing","tags":[]}},{"type":"Feature","geometry":{"type":"Point","coordinates":[-8.23143,41.04688]},"properties":{"id":"n12339849054","name":"Efeito de Estufa / Greenhouse Effect","country":"Portugal","countryCode":"PT","region":null,"locality":null,"website":null,"badge":"Climbing spot","stat":"Sport climbing","tags":["Trad"]}},{"type":"Feature","geometry":{"type":"Point","coordinates":[-8.98212,38.48047]},"properties":{"id":"w989741279","name":"El Carallon","country":"Portugal","countryCode":"PT","region":null,"locality":null,"website":null,"badge":"Climbing spot","stat":"Natural crag","tags":["Limestone","Graded routes"]}},{"type":"Feature","geometry":{"type":"Point","coordinates":[-9.44745,38.69531]},"properties":{"id":"w1062208380","name":"Escadas","country":"Portugal","countryCode":"PT","region":null,"locality":null,"website":null,"badge":"Climbing spot","stat":"Natural crag","tags":["Limestone","Graded routes"]}},{"type":"Feature","geometry":{"type":"Point","coordinates":[-9.17881,38.70035]},"properties":{"id":"n13230741433","name":"Escala25","country":"Portugal","countryCode":"PT","region":null,"locality":null,"website":"https://escala25.com/","badge":"Climbing spot","stat":"Indoor climbing gym","tags":["Indoor"]}},{"type":"Feature","geometry":{"type":"Point","coordinates":[-9.44748,38.6952]},"properties":{"id":"n2961928491","name":"Escola de Escalada da Guia","country":"Portugal","countryCode":"PT","region":null,"locality":null,"website":null,"badge":"Climbing spot","stat":"Natural crag","tags":["Limestone","Graded routes"]}},{"type":"Feature","geometry":{"type":"Point","coordinates":[-9.4469,38.69509]},"properties":{"id":"r14164828","name":"Escola de Escalada da Guia","country":"Portugal","countryCode":"PT","region":null,"locality":null,"website":null,"badge":"Climbing spot","stat":"Natural crag","tags":["Limestone","Graded routes"]}},{"type":"Feature","geometry":{"type":"Point","coordinates":[-8.93616,38.49018]},"properties":{"id":"r11931634","name":"Escola de Escalada do Outão","country":"Portugal","countryCode":"PT","region":null,"locality":null,"website":null,"badge":"Climbing spot","stat":"Sport climbing","tags":["Sport","Limestone"]}},{"type":"Feature","geometry":{"type":"Point","coordinates":[-8.43289,41.12775]},"properties":{"id":"n12343221916","name":"Esfrega","country":"Portugal","countryCode":"PT","region":null,"locality":null,"website":null,"badge":"Climbing spot","stat":"Sport climbing","tags":[]}},{"type":"Feature","geometry":{"type":"Point","coordinates":[-8.4329,41.12776]},"properties":{"id":"n12343221917","name":"Esfrega Dedos","country":"Portugal","countryCode":"PT","region":null,"locality":null,"website":null,"badge":"Climbing spot","stat":"Sport climbing","tags":[]}},{"type":"Feature","geometry":{"type":"Point","coordinates":[-9.49381,38.76949]},"properties":{"id":"w1005035653","name":"Espinhaço","country":"Portugal","countryCode":"PT","region":null,"locality":null,"website":null,"badge":"Climbing spot","stat":"Sport climbing","tags":["Sport","Trad","Multipitch","Graded routes"]}},{"type":"Feature","geometry":{"type":"Point","coordinates":[-8.42872,40.87751]},"properties":{"id":"n12974200886","name":"Esporão Cunha","country":"Portugal","countryCode":"PT","region":null,"locality":null,"website":null,"badge":"Climbing spot","stat":"Sport climbing","tags":[]}},{"type":"Feature","geometry":{"type":"Point","coordinates":[-9.13384,38.42993]},"properties":{"id":"w943954742","name":"Esporão do Pé-Descalço","country":"Portugal","countryCode":"PT","region":null,"locality":null,"website":null,"badge":"Climbing spot","stat":"Natural crag","tags":["Limestone","Graded routes"]}},{"type":"Feature","geometry":{"type":"Point","coordinates":[-7.602,40.32775]},"properties":{"id":"w1023422293","name":"Esporão Verde","country":"Portugal","countryCode":"PT","region":null,"locality":null,"website":null,"badge":"Climbing spot","stat":"Natural crag","tags":["Granite"]}},{"type":"Feature","geometry":{"type":"Point","coordinates":[-8.42873,40.87754]},"properties":{"id":"n12974200888","name":"Exquercuzinho","country":"Portugal","countryCode":"PT","region":null,"locality":null,"website":null,"badge":"Climbing spot","stat":"Sport climbing","tags":[]}},{"type":"Feature","geometry":{"type":"Point","coordinates":[-8.43396,41.12753]},"properties":{"id":"n12973018189","name":"Extensão Volare","country":"Portugal","countryCode":"PT","region":null,"locality":null,"website":null,"badge":"Climbing spot","stat":"Sport climbing","tags":[]}},{"type":"Feature","geometry":{"type":"Point","coordinates":[-9.4468,38.69506]},"properties":{"id":"w1062208374","name":"Farol","country":"Portugal","countryCode":"PT","region":null,"locality":null,"website":null,"badge":"Climbing spot","stat":"Natural crag","tags":["Limestone","Graded routes"]}},{"type":"Feature","geometry":{"type":"Point","coordinates":[-8.98272,38.4799]},"properties":{"id":"w989741275","name":"Fenda da Arrábida","country":"Portugal","countryCode":"PT","region":null,"locality":null,"website":null,"badge":"Climbing spot","stat":"Sport climbing","tags":["Sport"]}},{"type":"Feature","geometry":{"type":"Point","coordinates":[-8.95167,38.48524]},"properties":{"id":"w989702260","name":"Figueirinha","country":"Portugal","countryCode":"PT","region":null,"locality":null,"website":null,"badge":"Climbing spot","stat":"Natural crag","tags":["Limestone","Graded routes"]}},{"type":"Feature","geometry":{"type":"Point","coordinates":[-9.22082,38.41293]},"properties":{"id":"w1244173722","name":"Finisterra","country":"Portugal","countryCode":"PT","region":null,"locality":null,"website":null,"badge":"Climbing spot","stat":"Natural crag","tags":["Limestone","Graded routes"]}},{"type":"Feature","geometry":{"type":"Point","coordinates":[-9.13501,38.43022]},"properties":{"id":"w943954744","name":"Flanco Direito","country":"Portugal","countryCode":"PT","region":null,"locality":null,"website":null,"badge":"Climbing spot","stat":"Natural crag","tags":["Limestone","Graded routes"]}},{"type":"Feature","geometry":{"type":"Point","coordinates":[-9.13624,38.42965]},"properties":{"id":"w943954749","name":"Flanco Esquerdo","country":"Portugal","countryCode":"PT","region":null,"locality":null,"website":null,"badge":"Climbing spot","stat":"Natural crag","tags":["Limestone","Graded routes"]}},{"type":"Feature","geometry":{"type":"Point","coordinates":[-9.01613,38.45488]},"properties":{"id":"r12184562","name":"Fojo dos Morcegos","country":"Portugal","countryCode":"PT","region":null,"locality":null,"website":null,"badge":"Climbing spot","stat":"Sport climbing","tags":["Sport","Multipitch"]}},{"type":"Feature","geometry":{"type":"Point","coordinates":[-8.43395,41.12753]},"properties":{"id":"n12973018187","name":"Força de Aço","country":"Portugal","countryCode":"PT","region":null,"locality":null,"website":null,"badge":"Climbing spot","stat":"Sport climbing","tags":[]}},{"type":"Feature","geometry":{"type":"Point","coordinates":[-8.22333,41.93518]},"properties":{"id":"r16489236","name":"Fraga da Nédia","country":"Portugal","countryCode":"PT","region":null,"locality":null,"website":null,"badge":"Climbing spot","stat":"Natural crag","tags":["Granite","Graded routes"]}},{"type":"Feature","geometry":{"type":"Point","coordinates":[-8.12859,42.00934]},"properties":{"id":"r16795466","name":"Fraga de Anamão","country":"Portugal","countryCode":"PT","region":null,"locality":null,"website":null,"badge":"Climbing spot","stat":"Natural crag","tags":["Granite","Graded routes"]}},{"type":"Feature","geometry":{"type":"Point","coordinates":[-8.31723,39.96286]},"properties":{"id":"w1159473024","name":"Fraga Loureira","country":"Portugal","countryCode":"PT","region":null,"locality":null,"website":null,"badge":"Climbing spot","stat":"Natural crag","tags":["Quartzite","Graded routes"]}},{"type":"Feature","geometry":{"type":"Point","coordinates":[-8.31686,39.96341]},"properties":{"id":"w1159473025","name":"Fraga Vermelha","country":"Portugal","countryCode":"PT","region":null,"locality":null,"website":null,"badge":"Climbing spot","stat":"Natural crag","tags":["Quartzite","Graded routes"]}},{"type":"Feature","geometry":{"type":"Point","coordinates":[-8.3149,39.95465]},"properties":{"id":"w1160230785","name":"Fragas do Cercal","country":"Portugal","countryCode":"PT","region":null,"locality":null,"website":null,"badge":"Climbing spot","stat":"Natural crag","tags":["Quartzite","Graded routes"]}},{"type":"Feature","geometry":{"type":"Point","coordinates":[-8.43399,41.12753]},"properties":{"id":"n12973018198","name":"Fuga","country":"Portugal","countryCode":"PT","region":null,"locality":null,"website":null,"badge":"Climbing spot","stat":"Sport climbing","tags":[]}},{"type":"Feature","geometry":{"type":"Point","coordinates":[-9.21816,38.41287]},"properties":{"id":"w1244173721","name":"Gaivotas","country":"Portugal","countryCode":"PT","region":null,"locality":null,"website":null,"badge":"Climbing spot","stat":"Natural crag","tags":["Limestone","Graded routes"]}},{"type":"Feature","geometry":{"type":"Point","coordinates":[-9.22007,38.41278]},"properties":{"id":"w1244173723","name":"Gaivotas","country":"Portugal","countryCode":"PT","region":null,"locality":null,"website":null,"badge":"Climbing spot","stat":"Natural crag","tags":["Limestone","Graded routes"]}},{"type":"Feature","geometry":{"type":"Point","coordinates":[-8.43394,41.12753]},"properties":{"id":"n12973018183","name":"Garota do Ipanema","country":"Portugal","countryCode":"PT","region":null,"locality":null,"website":null,"badge":"Climbing spot","stat":"Sport climbing","tags":[]}},{"type":"Feature","geometry":{"type":"Point","coordinates":[-8.98124,38.48107]},"properties":{"id":"w989741268","name":"Giroflé-Giroflá","country":"Portugal","countryCode":"PT","region":null,"locality":null,"website":null,"badge":"Climbing spot","stat":"Natural crag","tags":["Limestone","Graded routes"]}},{"type":"Feature","geometry":{"type":"Point","coordinates":[-8.42874,40.87763]},"properties":{"id":"n12974200891","name":"Grade de Ouro","country":"Portugal","countryCode":"PT","region":null,"locality":null,"website":null,"badge":"Climbing spot","stat":"Sport climbing","tags":[]}},{"type":"Feature","geometry":{"type":"Point","coordinates":[-9.21612,38.41279]},"properties":{"id":"w1244173717","name":"Grande Gruta","country":"Portugal","countryCode":"PT","region":null,"locality":null,"website":null,"badge":"Climbing spot","stat":"Natural crag","tags":["Limestone"]}},{"type":"Feature","geometry":{"type":"Point","coordinates":[-9.21683,38.41289]},"properties":{"id":"w1244173719","name":"Grotta","country":"Portugal","countryCode":"PT","region":null,"locality":null,"website":null,"badge":"Climbing spot","stat":"Natural crag","tags":["Limestone","Graded routes"]}},{"type":"Feature","geometry":{"type":"Point","coordinates":[-7.73066,41.30538]},"properties":{"id":"w803133278","name":"Grupo de Montanhismo de Vila Real","country":"Portugal","countryCode":"PT","region":null,"locality":null,"website":null,"badge":"Climbing spot","stat":"Indoor climbing gym","tags":["Indoor"]}},{"type":"Feature","geometry":{"type":"Point","coordinates":[-9.01668,38.45446]},"properties":{"id":"n5555008452","name":"Gruta dos Morcegos","country":"Portugal","countryCode":"PT","region":null,"locality":null,"website":null,"badge":"Climbing spot","stat":"Natural crag","tags":["Limestone","Graded routes"]}},{"type":"Feature","geometry":{"type":"Point","coordinates":[-9.44558,38.69491]},"properties":{"id":"w1062208371","name":"Guia Nova","country":"Portugal","countryCode":"PT","region":null,"locality":null,"website":null,"badge":"Climbing spot","stat":"Natural crag","tags":["Limestone","Graded routes"]}},{"type":"Feature","geometry":{"type":"Point","coordinates":[-9.09,38.441]},"properties":{"id":"w1423494617","name":"Hotel Aplat","country":"Portugal","countryCode":"PT","region":null,"locality":null,"website":null,"badge":"Climbing spot","stat":"Natural crag","tags":[]}},{"type":"Feature","geometry":{"type":"Point","coordinates":[-8.4842,41.14686]},"properties":{"id":"n12973252286","name":"Impec","country":"Portugal","countryCode":"PT","region":null,"locality":null,"website":null,"badge":"Climbing spot","stat":"Sport climbing","tags":[]}},{"type":"Feature","geometry":{"type":"Point","coordinates":[-8.8729,38.53332]},"properties":{"id":"w1082833423","name":"In Wall Climbing Center","country":"Portugal","countryCode":"PT","region":null,"locality":"Setúbal","website":"https://inwallclimbing.pt/","badge":"Climbing spot","stat":"Indoor climbing gym","tags":["Indoor"]}},{"type":"Feature","geometry":{"type":"Point","coordinates":[-8.42874,40.87777]},"properties":{"id":"n12974200898","name":"Inês e Bernardo Silvas","country":"Portugal","countryCode":"PT","region":null,"locality":null,"website":null,"badge":"Climbing spot","stat":"Sport climbing","tags":[]}},{"type":"Feature","geometry":{"type":"Point","coordinates":[-8.42874,40.87768]},"properties":{"id":"n12974200894","name":"Influencer Verdinho","country":"Portugal","countryCode":"PT","region":null,"locality":null,"website":null,"badge":"Climbing spot","stat":"Sport climbing","tags":[]}},{"type":"Feature","geometry":{"type":"Point","coordinates":[-8.42884,40.87793]},"properties":{"id":"n12974224603","name":"Ínsua","country":"Portugal","countryCode":"PT","region":null,"locality":null,"website":null,"badge":"Climbing spot","stat":"Sport climbing","tags":["Graded routes"]}},{"type":"Feature","geometry":{"type":"Point","coordinates":[-8.23141,41.04687]},"properties":{"id":"n12339849051","name":"Interveniente acidental","country":"Portugal","countryCode":"PT","region":null,"locality":null,"website":null,"badge":"Climbing spot","stat":"Sport climbing","tags":[]}},{"type":"Feature","geometry":{"type":"Point","coordinates":[-8.43287,41.12772]},"properties":{"id":"n12343221913","name":"Invertida dos Dedos","country":"Portugal","countryCode":"PT","region":null,"locality":null,"website":null,"badge":"Climbing spot","stat":"Sport climbing","tags":[]}},{"type":"Feature","geometry":{"type":"Point","coordinates":[-9.01571,38.45505]},"properties":{"id":"w895090677","name":"Komeni","country":"Portugal","countryCode":"PT","region":null,"locality":null,"website":null,"badge":"Climbing spot","stat":"Natural crag","tags":["Limestone","Graded routes"]}},{"type":"Feature","geometry":{"type":"Point","coordinates":[-8.23151,41.04695]},"properties":{"id":"n12339849068","name":"Laika (sit start)","country":"Portugal","countryCode":"PT","region":null,"locality":null,"website":null,"badge":"Climbing spot","stat":"Sport climbing","tags":["Boulder"]}},{"type":"Feature","geometry":{"type":"Point","coordinates":[-8.23151,41.04694]},"properties":{"id":"n12339849067","name":"Laika (stand start)","country":"Portugal","countryCode":"PT","region":null,"locality":null,"website":null,"badge":"Climbing spot","stat":"Sport climbing","tags":["Boulder"]}},{"type":"Feature","geometry":{"type":"Point","coordinates":[-9.0643,38.44058]},"properties":{"id":"n4675294034","name":"Lapa da Cova","country":"Portugal","countryCode":"PT","region":null,"locality":null,"website":null,"badge":"Climbing spot","stat":"Natural crag","tags":["Limestone","Graded routes"]}},{"type":"Feature","geometry":{"type":"Point","coordinates":[-8.23146,41.0469]},"properties":{"id":"n12339849059","name":"Largo do Conde","country":"Portugal","countryCode":"PT","region":null,"locality":null,"website":null,"badge":"Climbing spot","stat":"Sport climbing","tags":[]}},{"type":"Feature","geometry":{"type":"Point","coordinates":[-8.23145,41.0469]},"properties":{"id":"n12339849058","name":"Largo do Conde (variante placa)","country":"Portugal","countryCode":"PT","region":null,"locality":null,"website":null,"badge":"Climbing spot","stat":"Sport climbing","tags":[]}},{"type":"Feature","geometry":{"type":"Point","coordinates":[-8.42875,40.87771]},"properties":{"id":"n12974200895","name":"Lenda da Pedra Má","country":"Portugal","countryCode":"PT","region":null,"locality":null,"website":null,"badge":"Climbing spot","stat":"Sport climbing","tags":[]}},{"type":"Feature","geometry":{"type":"Point","coordinates":[-9.21577,38.41274]},"properties":{"id":"w1244173714","name":"Leve-Leve","country":"Portugal","countryCode":"PT","region":null,"locality":null,"website":null,"badge":"Climbing spot","stat":"Natural crag","tags":["Limestone","Graded routes"]}},{"type":"Feature","geometry":{"type":"Point","coordinates":[-8.976,38.49222]},"properties":{"id":"w903202301","name":"Lusitânia","country":"Portugal","countryCode":"PT","region":null,"locality":null,"website":null,"badge":"Climbing spot","stat":"Sport climbing","tags":["Sport","Limestone"]}},{"type":"Feature","geometry":{"type":"Point","coordinates":[-8.75798,39.63463]},"properties":{"id":"n13037667964","name":"Malhadouro","country":"Portugal","countryCode":"PT","region":null,"locality":null,"website":"https://montanhaescalada.com/reguengo-do-fetal-malhadouro/","badge":"Climbing spot","stat":"Sport climbing","tags":["Sport"]}},{"type":"Feature","geometry":{"type":"Point","coordinates":[-8.23142,41.04687]},"properties":{"id":"n12339849052","name":"Mamilo do Sovaco / Armpit Nipple","country":"Portugal","countryCode":"PT","region":null,"locality":null,"website":null,"badge":"Climbing spot","stat":"Sport climbing","tags":[]}},{"type":"Feature","geometry":{"type":"Point","coordinates":[-8.23141,41.04686]},"properties":{"id":"n12339849050","name":"Mamilo no Soalho","country":"Portugal","countryCode":"PT","region":null,"locality":null,"website":null,"badge":"Climbing spot","stat":"Sport climbing","tags":[]}},{"type":"Feature","geometry":{"type":"Point","coordinates":[-8.23139,41.04685]},"properties":{"id":"n12339849049","name":"Mamilo púbico","country":"Portugal","countryCode":"PT","region":null,"locality":null,"website":null,"badge":"Climbing spot","stat":"Sport climbing","tags":[]}},{"type":"Feature","geometry":{"type":"Point","coordinates":[-8.22447,41.97667]},"properties":{"id":"n12318831301","name":"Meadinha Peneda","country":"Portugal","countryCode":"PT","region":null,"locality":null,"website":"http://meadinha.com/","badge":"Climbing spot","stat":"Climbing area","tags":[]}},{"type":"Feature","geometry":{"type":"Point","coordinates":[-9.21081,38.41226]},"properties":{"id":"r12271589","name":"Meio Mango","country":"Portugal","countryCode":"PT","region":null,"locality":null,"website":null,"badge":"Climbing spot","stat":"Sport climbing","tags":["Sport"]}},{"type":"Feature","geometry":{"type":"Point","coordinates":[-9.01494,38.45537]},"properties":{"id":"w962060479","name":"Meteoritos","country":"Portugal","countryCode":"PT","region":null,"locality":null,"website":null,"badge":"Climbing spot","stat":"Sport climbing","tags":["Sport","Limestone","Graded routes"]}},{"type":"Feature","geometry":{"type":"Point","coordinates":[-8.23144,41.04689]},"properties":{"id":"n12339849055","name":"Mira Paiva","country":"Portugal","countryCode":"PT","region":null,"locality":null,"website":null,"badge":"Climbing spot","stat":"Sport climbing","tags":[]}},{"type":"Feature","geometry":{"type":"Point","coordinates":[-9.21435,38.41258]},"properties":{"id":"w1244173710","name":"Miradouro","country":"Portugal","countryCode":"PT","region":null,"locality":null,"website":null,"badge":"Climbing spot","stat":"Natural crag","tags":["Limestone","Graded routes"]}},{"type":"Feature","geometry":{"type":"Point","coordinates":[-7.85691,40.08599]},"properties":{"id":"w1274440452","name":"Miradouro","country":"Portugal","countryCode":"PT","region":null,"locality":null,"website":null,"badge":"Climbing spot","stat":"Natural crag","tags":["Quartzite"]}},{"type":"Feature","geometry":{"type":"Point","coordinates":[-9.07308,39.17686]},"properties":{"id":"n3025351340","name":"Montejunto Novo","country":"Portugal","countryCode":"PT","region":null,"locality":null,"website":"http://climbtheworld.net/wiki/Montejunto_Novo","badge":"Climbing spot","stat":"Climbing area","tags":["Graded routes"]}},{"type":"Feature","geometry":{"type":"Point","coordinates":[-9.05749,39.1919]},"properties":{"id":"n2996855554","name":"Montejunto Velho","country":"Portugal","countryCode":"PT","region":null,"locality":null,"website":"http://climbtheworld.net/wiki/Montejunto_Velho","badge":"Climbing spot","stat":"Climbing area","tags":["Graded routes"]}},{"type":"Feature","geometry":{"type":"Point","coordinates":[-9.43811,38.89404]},"properties":{"id":"w440158813","name":"Morro Este","country":"Portugal","countryCode":"PT","region":null,"locality":null,"website":null,"badge":"Climbing spot","stat":"Natural crag","tags":["Basalt","Graded routes"]}},{"type":"Feature","geometry":{"type":"Point","coordinates":[-9.4382,38.89403]},"properties":{"id":"w391340298","name":"Morro Oeste","country":"Portugal","countryCode":"PT","region":null,"locality":null,"website":null,"badge":"Climbing spot","stat":"Natural crag","tags":["Basalt","Graded routes"]}},{"type":"Feature","geometry":{"type":"Point","coordinates":[-8.43398,41.12753]},"properties":{"id":"n12973018197","name":"Nossa Gente","country":"Portugal","countryCode":"PT","region":null,"locality":null,"website":null,"badge":"Climbing spot","stat":"Sport climbing","tags":[]}},{"type":"Feature","geometry":{"type":"Point","coordinates":[-8.55173,39.98944]},"properties":{"id":"n8749717388","name":"Nossa Senhora da Estrela Climbing","country":"Portugal","countryCode":"PT","region":null,"locality":null,"website":null,"badge":"Climbing spot","stat":"Indoor climbing gym","tags":["Indoor"]}},{"type":"Feature","geometry":{"type":"Point","coordinates":[-8.43396,41.12753]},"properties":{"id":"n12973018190","name":"O Voyer","country":"Portugal","countryCode":"PT","region":null,"locality":null,"website":null,"badge":"Climbing spot","stat":"Sport climbing","tags":[]}},{"type":"Feature","geometry":{"type":"Point","coordinates":[-9.448,38.69532]},"properties":{"id":"w1062208382","name":"Ocidente","country":"Portugal","countryCode":"PT","region":null,"locality":null,"website":null,"badge":"Climbing spot","stat":"Natural crag","tags":["Limestone","Graded routes"]}},{"type":"Feature","geometry":{"type":"Point","coordinates":[-9.21217,38.41266]},"properties":{"id":"w903536134","name":"Olímpo","country":"Portugal","countryCode":"PT","region":null,"locality":null,"website":null,"badge":"Climbing spot","stat":"Sport climbing","tags":["Sport","Limestone"]}},{"type":"Feature","geometry":{"type":"Point","coordinates":[-8.28206,41.58648]},"properties":{"id":"n12351869202","name":"Os Convestáveis","country":"Portugal","countryCode":"PT","region":null,"locality":null,"website":null,"badge":"Climbing spot","stat":"Sport climbing","tags":[]}},{"type":"Feature","geometry":{"type":"Point","coordinates":[-8.43396,41.12753]},"properties":{"id":"n12973018191","name":"Outras Palavras","country":"Portugal","countryCode":"PT","region":null,"locality":null,"website":null,"badge":"Climbing spot","stat":"Sport climbing","tags":[]}},{"type":"Feature","geometry":{"type":"Point","coordinates":[-8.42885,40.87793]},"properties":{"id":"n12974224604","name":"Pangaio","country":"Portugal","countryCode":"PT","region":null,"locality":null,"website":null,"badge":"Climbing spot","stat":"Sport climbing","tags":["Graded routes"]}},{"type":"Feature","geometry":{"type":"Point","coordinates":[-9.02002,38.45273]},"properties":{"id":"w1020660382","name":"Parede Branca","country":"Portugal","countryCode":"PT","region":null,"locality":null,"website":null,"badge":"Climbing spot","stat":"Natural crag","tags":["Limestone"]}},{"type":"Feature","geometry":{"type":"Point","coordinates":[-9.20686,38.77751]},"properties":{"id":"n4745205228","name":"Parede de Escalada","country":"Portugal","countryCode":"PT","region":null,"locality":null,"website":null,"badge":"Climbing spot","stat":"Indoor climbing gym","tags":["Indoor"]}},{"type":"Feature","geometry":{"type":"Point","coordinates":[-7.60158,40.32741]},"properties":{"id":"w1023422298","name":"Parede do Inferno","country":"Portugal","countryCode":"PT","region":null,"locality":null,"website":null,"badge":"Climbing spot","stat":"Natural crag","tags":["Granite"]}},{"type":"Feature","geometry":{"type":"Point","coordinates":[-7.58001,40.32925]},"properties":{"id":"w1001238768","name":"Parede dos Fantasmas","country":"Portugal","countryCode":"PT","region":null,"locality":null,"website":null,"badge":"Climbing spot","stat":"Natural crag","tags":["Granite","Graded routes"]}},{"type":"Feature","geometry":{"type":"Point","coordinates":[-9.01831,38.454]},"properties":{"id":"w1020660377","name":"Parede dos Figos","country":"Portugal","countryCode":"PT","region":null,"locality":null,"website":null,"badge":"Climbing spot","stat":"Natural crag","tags":["Multipitch","Limestone"]}},{"type":"Feature","geometry":{"type":"Point","coordinates":[-9.13554,38.42983]},"properties":{"id":"w943954746","name":"Parede Grande","country":"Portugal","countryCode":"PT","region":null,"locality":null,"website":null,"badge":"Climbing spot","stat":"Natural crag","tags":["Limestone","Graded routes"]}},{"type":"Feature","geometry":{"type":"Point","coordinates":[-9.01657,38.45462]},"properties":{"id":"w1020660384","name":"Parede Grande","country":"Portugal","countryCode":"PT","region":null,"locality":null,"website":null,"badge":"Climbing spot","stat":"Natural crag","tags":["Limestone","Graded routes"]}},{"type":"Feature","geometry":{"type":"Point","coordinates":[-9.21458,38.41261]},"properties":{"id":"w1244173711","name":"Parede Grande","country":"Portugal","countryCode":"PT","region":null,"locality":null,"website":null,"badge":"Climbing spot","stat":"Natural crag","tags":["Limestone","Graded routes"]}},{"type":"Feature","geometry":{"type":"Point","coordinates":[-8.28206,41.58651]},"properties":{"id":"r18301868","name":"Parede Principal","country":"Portugal","countryCode":"PT","region":null,"locality":null,"website":"https://fpme.org/webpu/images/Topos_Guias/Monte_Pilar/Croquis-povoa-lanhoso-Monte%20Pilar02.jpg","badge":"Climbing spot","stat":"Climbing area","tags":[]}},{"type":"Feature","geometry":{"type":"Point","coordinates":[-8.48416,41.14685]},"properties":{"id":"n12973252289","name":"Passeio na Aresta","country":"Portugal","countryCode":"PT","region":null,"locality":null,"website":null,"badge":"Climbing spot","stat":"Sport climbing","tags":[]}},{"type":"Feature","geometry":{"type":"Point","coordinates":[-9.43067,38.77485]},"properties":{"id":"w558136554","name":"Pedra Amarela","country":"Portugal","countryCode":"PT","region":null,"locality":null,"website":null,"badge":"Climbing spot","stat":"Natural crag","tags":["Granite","Graded routes"]}},{"type":"Feature","geometry":{"type":"Point","coordinates":[-9.49318,38.79217]},"properties":{"id":"w610548043","name":"Pedra da Ursa","country":"Portugal","countryCode":"PT","region":null,"locality":null,"website":null,"badge":"Climbing spot","stat":"Trad climbing","tags":["Trad","Multipitch","Limestone"]}},{"type":"Feature","geometry":{"type":"Point","coordinates":[-9.06461,38.44057]},"properties":{"id":"w888002464","name":"Pedreiras","country":"Portugal","countryCode":"PT","region":null,"locality":null,"website":null,"badge":"Climbing spot","stat":"Natural crag","tags":["Limestone","Graded routes"]}},{"type":"Feature","geometry":{"type":"Point","coordinates":[-9.4931,38.79368]},"properties":{"id":"w1005022376","name":"Penedo da Noiva","country":"Portugal","countryCode":"PT","region":null,"locality":null,"website":null,"badge":"Climbing spot","stat":"Trad climbing","tags":["Trad","Multipitch","Limestone"]}},{"type":"Feature","geometry":{"type":"Point","coordinates":[-9.3886,38.79402]},"properties":{"id":"w1016285638","name":"Penedo do Rei","country":"Portugal","countryCode":"PT","region":null,"locality":null,"website":null,"badge":"Climbing spot","stat":"Bouldering","tags":["Granite"]}},{"type":"Feature","geometry":{"type":"Point","coordinates":[-8.38621,41.04602]},"properties":{"id":"w1040469254","name":"Penedo Lastrão","country":"Portugal","countryCode":"PT","region":null,"locality":null,"website":null,"badge":"Climbing spot","stat":"Natural crag","tags":[]}},{"type":"Feature","geometry":{"type":"Point","coordinates":[-8.38617,41.04605]},"properties":{"id":"n12061556869","name":"Penedo Lastrão climbing","country":"Portugal","countryCode":"PT","region":null,"locality":null,"website":null,"badge":"Climbing spot","stat":"Climbing area","tags":[]}},{"type":"Feature","geometry":{"type":"Point","coordinates":[-8.23146,41.04691]},"properties":{"id":"r18286649","name":"Penedo Ratão","country":"Portugal","countryCode":"PT","region":null,"locality":null,"website":"https://openclimbing.org/relation/18286649","badge":"Climbing spot","stat":"Climbing area","tags":[]}},{"type":"Feature","geometry":{"type":"Point","coordinates":[-8.23144,41.04689]},"properties":{"id":"n12339849056","name":"Penélope Sport","country":"Portugal","countryCode":"PT","region":null,"locality":null,"website":null,"badge":"Climbing spot","stat":"Sport climbing","tags":[]}},{"type":"Feature","geometry":{"type":"Point","coordinates":[-7.44915,39.30243]},"properties":{"id":"w1157718484","name":"Penha de Portalegre","country":"Portugal","countryCode":"PT","region":null,"locality":null,"website":null,"badge":"Climbing spot","stat":"Natural crag","tags":["Quartzite","Graded routes"]}},{"type":"Feature","geometry":{"type":"Point","coordinates":[-9.11711,38.43403]},"properties":{"id":"w945251529","name":"Pescas","country":"Portugal","countryCode":"PT","region":null,"locality":null,"website":null,"badge":"Climbing spot","stat":"Natural crag","tags":["Limestone"]}},{"type":"Feature","geometry":{"type":"Point","coordinates":[-8.43398,41.12753]},"properties":{"id":"n12973018196","name":"Picnic do Sultão","country":"Portugal","countryCode":"PT","region":null,"locality":null,"website":null,"badge":"Climbing spot","stat":"Sport climbing","tags":[]}},{"type":"Feature","geometry":{"type":"Point","coordinates":[-8.23152,41.04695]},"properties":{"id":"n12339849070","name":"Pico Maximus","country":"Portugal","countryCode":"PT","region":null,"locality":null,"website":null,"badge":"Climbing spot","stat":"Sport climbing","tags":["Boulder"]}},{"type":"Feature","geometry":{"type":"Point","coordinates":[-8.23152,41.04695]},"properties":{"id":"n12339849069","name":"Pico Mini","country":"Portugal","countryCode":"PT","region":null,"locality":null,"website":null,"badge":"Climbing spot","stat":"Sport climbing","tags":["Boulder"]}},{"type":"Feature","geometry":{"type":"Point","coordinates":[-8.23153,41.04696]},"properties":{"id":"n12339849071","name":"Pico Trav","country":"Portugal","countryCode":"PT","region":null,"locality":null,"website":null,"badge":"Climbing spot","stat":"Sport climbing","tags":["Boulder"]}},{"type":"Feature","geometry":{"type":"Point","coordinates":[-9.49558,38.77624]},"properties":{"id":"w1060663810","name":"Pilar do Golfinho","country":"Portugal","countryCode":"PT","region":null,"locality":null,"website":null,"badge":"Climbing spot","stat":"Natural crag","tags":["Granite","Graded routes"]}},{"type":"Feature","geometry":{"type":"Point","coordinates":[-8.23154,41.04697]},"properties":{"id":"n12339849075","name":"Piñata","country":"Portugal","countryCode":"PT","region":null,"locality":null,"website":null,"badge":"Climbing spot","stat":"Sport climbing","tags":["Boulder"]}},{"type":"Feature","geometry":{"type":"Point","coordinates":[-8.4288,40.87793]},"properties":{"id":"n12974200900","name":"Pindelo","country":"Portugal","countryCode":"PT","region":null,"locality":null,"website":null,"badge":"Climbing spot","stat":"Sport climbing","tags":["Graded routes"]}},{"type":"Feature","geometry":{"type":"Point","coordinates":[-9.13527,38.42979]},"properties":{"id":"r12724048","name":"Pinheirinhos","country":"Portugal","countryCode":"PT","region":null,"locality":null,"website":null,"badge":"Climbing spot","stat":"Climbing area","tags":[]}},{"type":"Feature","geometry":{"type":"Point","coordinates":[-8.42874,40.87765]},"properties":{"id":"n12974200892","name":"PIPO","country":"Portugal","countryCode":"PT","region":null,"locality":null,"website":null,"badge":"Climbing spot","stat":"Sport climbing","tags":[]}},{"type":"Feature","geometry":{"type":"Point","coordinates":[-9.49518,38.78786]},"properties":{"id":"w1005022370","name":"Pirâmide","country":"Portugal","countryCode":"PT","region":null,"locality":null,"website":null,"badge":"Climbing spot","stat":"Climbing area","tags":[]}},{"type":"Feature","geometry":{"type":"Point","coordinates":[-8.98385,38.47901]},"properties":{"id":"r13291485","name":"Piratas","country":"Portugal","countryCode":"PT","region":null,"locality":null,"website":null,"badge":"Climbing spot","stat":"Natural crag","tags":["Limestone","Graded routes"]}},{"type":"Feature","geometry":{"type":"Point","coordinates":[-9.49602,38.77614]},"properties":{"id":"w1060663811","name":"Placa do Sol","country":"Portugal","countryCode":"PT","region":null,"locality":null,"website":null,"badge":"Climbing spot","stat":"Natural crag","tags":["Granite"]}},{"type":"Feature","geometry":{"type":"Point","coordinates":[-7.60184,40.32756]},"properties":{"id":"w1023422294","name":"Placa Verde","country":"Portugal","countryCode":"PT","region":null,"locality":null,"website":null,"badge":"Climbing spot","stat":"Natural crag","tags":["Granite"]}},{"type":"Feature","geometry":{"type":"Point","coordinates":[-8.98214,38.48033]},"properties":{"id":"w989741282","name":"Placas","country":"Portugal","countryCode":"PT","region":null,"locality":null,"website":null,"badge":"Climbing spot","stat":"Natural crag","tags":["Limestone","Graded routes"]}},{"type":"Feature","geometry":{"type":"Point","coordinates":[-9.21132,38.41228]},"properties":{"id":"w903536132","name":"Poças","country":"Portugal","countryCode":"PT","region":null,"locality":null,"website":null,"badge":"Climbing spot","stat":"Natural crag","tags":["Limestone","Graded routes"]}},{"type":"Feature","geometry":{"type":"Point","coordinates":[-9.17609,38.42658]},"properties":{"id":"w875746708","name":"Poema Rocha","country":"Portugal","countryCode":"PT","region":null,"locality":null,"website":null,"badge":"Climbing spot","stat":"Natural crag","tags":["Limestone","Graded routes"]}},{"type":"Feature","geometry":{"type":"Point","coordinates":[-8.23148,41.04693]},"properties":{"id":"n12339849063","name":"Polígrafo","country":"Portugal","countryCode":"PT","region":null,"locality":null,"website":null,"badge":"Climbing spot","stat":"Sport climbing","tags":[]}},{"type":"Feature","geometry":{"type":"Point","coordinates":[-9.2222,38.41346]},"properties":{"id":"w1244173726","name":"Ponta de Ser","country":"Portugal","countryCode":"PT","region":null,"locality":null,"website":null,"badge":"Climbing spot","stat":"Natural crag","tags":["Limestone","Graded routes"]}},{"type":"Feature","geometry":{"type":"Point","coordinates":[-9.12009,38.43361]},"properties":{"id":"w876280889","name":"Portugal dos Pequeninos","country":"Portugal","countryCode":"PT","region":null,"locality":null,"website":null,"badge":"Climbing spot","stat":"Natural crag","tags":["Limestone","Graded routes"]}},{"type":"Feature","geometry":{"type":"Point","coordinates":[-9.49174,38.79086]},"properties":{"id":"r13466263","name":"Praia da Ursa","country":"Portugal","countryCode":"PT","region":null,"locality":null,"website":null,"badge":"Climbing spot","stat":"Climbing area","tags":[]}},{"type":"Feature","geometry":{"type":"Point","coordinates":[-9.49174,38.79088]},"properties":{"id":"w1005035655","name":"Praia da Ursa Cascata Norte","country":"Portugal","countryCode":"PT","region":null,"locality":null,"website":null,"badge":"Climbing spot","stat":"Natural crag","tags":["Graded routes"]}},{"type":"Feature","geometry":{"type":"Point","coordinates":[-9.49175,38.79082]},"properties":{"id":"w1005035654","name":"Praia da Ursa Cascata Sul","country":"Portugal","countryCode":"PT","region":null,"locality":null,"website":null,"badge":"Climbing spot","stat":"Natural crag","tags":["Graded routes"]}},{"type":"Feature","geometry":{"type":"Point","coordinates":[-8.42888,40.87791]},"properties":{"id":"n12974224602","name":"Primeira Descida","country":"Portugal","countryCode":"PT","region":null,"locality":null,"website":null,"badge":"Climbing spot","stat":"Sport climbing","tags":[]}},{"type":"Feature","geometry":{"type":"Point","coordinates":[-8.43291,41.12778]},"properties":{"id":"n12343221919","name":"Primeirissima","country":"Portugal","countryCode":"PT","region":null,"locality":null,"website":null,"badge":"Climbing spot","stat":"Sport climbing","tags":[]}},{"type":"Feature","geometry":{"type":"Point","coordinates":[-9.2154,38.4127]},"properties":{"id":"w1244173713","name":"Proa","country":"Portugal","countryCode":"PT","region":null,"locality":null,"website":null,"badge":"Climbing spot","stat":"Natural crag","tags":["Limestone","Graded routes"]}},{"type":"Feature","geometry":{"type":"Point","coordinates":[-8.43397,41.12753]},"properties":{"id":"n12973018193","name":"Pronto Pagamento","country":"Portugal","countryCode":"PT","region":null,"locality":null,"website":null,"badge":"Climbing spot","stat":"Sport climbing","tags":[]}},{"type":"Feature","geometry":{"type":"Point","coordinates":[-8.48407,41.14693]},"properties":{"id":"n12973252298","name":"Queijo suiço","country":"Portugal","countryCode":"PT","region":null,"locality":null,"website":null,"badge":"Climbing spot","stat":"Sport climbing","tags":[]}},{"type":"Feature","geometry":{"type":"Point","coordinates":[-8.98388,38.47916]},"properties":{"id":"w989741270","name":"Quinto Pirata","country":"Portugal","countryCode":"PT","region":null,"locality":null,"website":null,"badge":"Climbing spot","stat":"Sport climbing","tags":["Sport","Limestone"]}},{"type":"Feature","geometry":{"type":"Point","coordinates":[-9.08965,38.44077]},"properties":{"id":"w1423494621","name":"Racha do Leão","country":"Portugal","countryCode":"PT","region":null,"locality":null,"website":null,"badge":"Climbing spot","stat":"Natural crag","tags":[]}},{"type":"Feature","geometry":{"type":"Point","coordinates":[-7.73742,41.29917]},"properties":{"id":"w814168476","name":"Rocódromo de Vila Real - Escola de Escalada de Montanha","country":"Portugal","countryCode":"PT","region":null,"locality":null,"website":"https://www.grupomontanhismovr.com/","badge":"Climbing spot","stat":"Indoor climbing gym","tags":["Indoor"]}},{"type":"Feature","geometry":{"type":"Point","coordinates":[-9.21029,38.41192]},"properties":{"id":"w903536130","name":"Santa Linha","country":"Portugal","countryCode":"PT","region":null,"locality":null,"website":null,"badge":"Climbing spot","stat":"Natural crag","tags":["Limestone","Graded routes"]}},{"type":"Feature","geometry":{"type":"Point","coordinates":[-7.85561,40.08545]},"properties":{"id":"w1354584472","name":"Santa Luzia Multi-Largo","country":"Portugal","countryCode":"PT","region":null,"locality":null,"website":null,"badge":"Climbing spot","stat":"Natural crag","tags":["Quartzite","Graded routes"]}},{"type":"Feature","geometry":{"type":"Point","coordinates":[-8.58728,41.15444]},"properties":{"id":"n9814405564","name":"São Rock Climbing","country":"Portugal","countryCode":"PT","region":null,"locality":"Porto","website":"https://saorockclimbing.com/","badge":"Climbing spot","stat":"Bouldering","tags":["Boulder","Indoor"]}},{"type":"Feature","geometry":{"type":"Point","coordinates":[-7.50461,40.06573]},"properties":{"id":"n11645755550","name":"Sector Baldeira","country":"Portugal","countryCode":"PT","region":null,"locality":null,"website":null,"badge":"Climbing spot","stat":"Natural crag","tags":["Granite"]}},{"type":"Feature","geometry":{"type":"Point","coordinates":[-7.49865,40.47796]},"properties":{"id":"w1069603719","name":"Sector Bucólico","country":"Portugal","countryCode":"PT","region":null,"locality":null,"website":null,"badge":"Climbing spot","stat":"Natural crag","tags":["Granite","Graded routes"]}},{"type":"Feature","geometry":{"type":"Point","coordinates":[-8.43286,41.12772]},"properties":{"id":"r18290012","name":"Sector Capela","country":"Portugal","countryCode":"PT","region":null,"locality":null,"website":null,"badge":"Climbing spot","stat":"Climbing area","tags":[]}},{"type":"Feature","geometry":{"type":"Point","coordinates":[-9.39025,38.79243]},"properties":{"id":"w1047493561","name":"Sector Castelo","country":"Portugal","countryCode":"PT","region":null,"locality":null,"website":null,"badge":"Climbing spot","stat":"Natural crag","tags":["Multipitch","Granite","Graded routes"]}},{"type":"Feature","geometry":{"type":"Point","coordinates":[-9.391,38.79207]},"properties":{"id":"w1047493565","name":"Sector Central e Solar","country":"Portugal","countryCode":"PT","region":null,"locality":null,"website":null,"badge":"Climbing spot","stat":"Natural crag","tags":["Multipitch","Granite","Graded routes"]}},{"type":"Feature","geometry":{"type":"Point","coordinates":[-9.0193,38.45357]},"properties":{"id":"w1042066886","name":"Sector dos Amigos","country":"Portugal","countryCode":"PT","region":null,"locality":null,"website":null,"badge":"Climbing spot","stat":"Natural crag","tags":["Limestone"]}},{"type":"Feature","geometry":{"type":"Point","coordinates":[-8.87474,41.97639]},"properties":{"id":"n2324405894","name":"Sector La Fuente","country":"Portugal","countryCode":"PT","region":null,"locality":null,"website":null,"badge":"Climbing spot","stat":"Climbing area","tags":[]}},{"type":"Feature","geometry":{"type":"Point","coordinates":[-8.86617,41.98946]},"properties":{"id":"n2324405895","name":"Sector Monasterio","country":"Portugal","countryCode":"PT","region":null,"locality":null,"website":null,"badge":"Climbing spot","stat":"Climbing area","tags":[]}},{"type":"Feature","geometry":{"type":"Point","coordinates":[-7.50411,40.06672]},"properties":{"id":"n11638971921","name":"Sector Óvnico","country":"Portugal","countryCode":"PT","region":null,"locality":null,"website":null,"badge":"Climbing spot","stat":"Natural crag","tags":["Granite"]}},{"type":"Feature","geometry":{"type":"Point","coordinates":[-9.39089,38.79254]},"properties":{"id":"w1047493563","name":"Sector Penedo Norte","country":"Portugal","countryCode":"PT","region":null,"locality":null,"website":null,"badge":"Climbing spot","stat":"Natural crag","tags":["Multipitch","Granite","Graded routes"]}},{"type":"Feature","geometry":{"type":"Point","coordinates":[-9.49487,38.76968]},"properties":{"id":"w1274423279","name":"Sector Perdido","country":"Portugal","countryCode":"PT","region":null,"locality":null,"website":null,"badge":"Climbing spot","stat":"Natural crag","tags":["Granite","Graded routes"]}},{"type":"Feature","geometry":{"type":"Point","coordinates":[-8.48408,41.14695]},"properties":{"id":"n12973252299","name":"Sequências","country":"Portugal","countryCode":"PT","region":null,"locality":null,"website":null,"badge":"Climbing spot","stat":"Sport climbing","tags":[]}},{"type":"Feature","geometry":{"type":"Point","coordinates":[-8.2315,41.04694]},"properties":{"id":"n12339849065","name":"Seringador","country":"Portugal","countryCode":"PT","region":null,"locality":null,"website":null,"badge":"Climbing spot","stat":"Sport climbing","tags":[]}},{"type":"Feature","geometry":{"type":"Point","coordinates":[-8.28207,41.5865]},"properties":{"id":"n12351869203","name":"Serpes Alada","country":"Portugal","countryCode":"PT","region":null,"locality":null,"website":null,"badge":"Climbing spot","stat":"Sport climbing","tags":[]}},{"type":"Feature","geometry":{"type":"Point","coordinates":[-9.11974,38.43375]},"properties":{"id":"r11931231","name":"Sesimbra Velha","country":"Portugal","countryCode":"PT","region":null,"locality":null,"website":null,"badge":"Climbing spot","stat":"Sport climbing","tags":["Sport"]}},{"type":"Feature","geometry":{"type":"Point","coordinates":[-8.42873,40.87754]},"properties":{"id":"r19318483","name":"Setor 1 - Puxadinhas","country":"Portugal","countryCode":"PT","region":null,"locality":null,"website":null,"badge":"Climbing spot","stat":"Climbing area","tags":[]}},{"type":"Feature","geometry":{"type":"Point","coordinates":[-8.42874,40.8777]},"properties":{"id":"r19318484","name":"Setor 2 - Afastadinhas","country":"Portugal","countryCode":"PT","region":null,"locality":null,"website":null,"badge":"Climbing spot","stat":"Climbing area","tags":[]}},{"type":"Feature","geometry":{"type":"Point","coordinates":[-8.42883,40.87792]},"properties":{"id":"r19318485","name":"Setor 3 - Compridinhas","country":"Portugal","countryCode":"PT","region":null,"locality":null,"website":null,"badge":"Climbing spot","stat":"Climbing area","tags":[]}},{"type":"Feature","geometry":{"type":"Point","coordinates":[-8.21879,40.21972]},"properties":{"id":"n7788482640","name":"Setor Miradouro","country":"Portugal","countryCode":"PT","region":null,"locality":null,"website":null,"badge":"Climbing spot","stat":"Indoor climbing gym","tags":["Indoor"]}},{"type":"Feature","geometry":{"type":"Point","coordinates":[-8.21748,40.2171]},"properties":{"id":"n7788482638","name":"Setor Penedo da Desgraça","country":"Portugal","countryCode":"PT","region":null,"locality":null,"website":null,"badge":"Climbing spot","stat":"Indoor climbing gym","tags":["Indoor"]}},{"type":"Feature","geometry":{"type":"Point","coordinates":[-8.21872,40.21836]},"properties":{"id":"n7788482639","name":"Setor Penedo do Mouro","country":"Portugal","countryCode":"PT","region":null,"locality":null,"website":null,"badge":"Climbing spot","stat":"Indoor climbing gym","tags":["Indoor"]}},{"type":"Feature","geometry":{"type":"Point","coordinates":[-8.21686,40.21594]},"properties":{"id":"n7788482637","name":"Setor Penedo Rua Sésamo","country":"Portugal","countryCode":"PT","region":null,"locality":null,"website":null,"badge":"Climbing spot","stat":"Indoor climbing gym","tags":["Indoor"]}},{"type":"Feature","geometry":{"type":"Point","coordinates":[-9.20992,38.41187]},"properties":{"id":"w903536129","name":"SMART","country":"Portugal","countryCode":"PT","region":null,"locality":null,"website":null,"badge":"Climbing spot","stat":"Sport climbing","tags":["Sport","Limestone"]}},{"type":"Feature","geometry":{"type":"Point","coordinates":[-8.23138,41.04685]},"properties":{"id":"n12339849048","name":"Soalho pélvico","country":"Portugal","countryCode":"PT","region":null,"locality":null,"website":null,"badge":"Climbing spot","stat":"Sport climbing","tags":[]}},{"type":"Feature","geometry":{"type":"Point","coordinates":[-8.43393,41.12753]},"properties":{"id":"n12973018181","name":"Sonho Interrompido","country":"Portugal","countryCode":"PT","region":null,"locality":null,"website":null,"badge":"Climbing spot","stat":"Sport climbing","tags":[]}},{"type":"Feature","geometry":{"type":"Point","coordinates":[-8.43393,41.12753]},"properties":{"id":"n12973018182","name":"Space Cake","country":"Portugal","countryCode":"PT","region":null,"locality":null,"website":null,"badge":"Climbing spot","stat":"Sport climbing","tags":[]}},{"type":"Feature","geometry":{"type":"Point","coordinates":[-8.23153,41.04696]},"properties":{"id":"n12339849072","name":"Sputnik","country":"Portugal","countryCode":"PT","region":null,"locality":null,"website":null,"badge":"Climbing spot","stat":"Sport climbing","tags":["Boulder"]}},{"type":"Feature","geometry":{"type":"Point","coordinates":[-8.23154,41.04696]},"properties":{"id":"n12339849073","name":"T-Rex","country":"Portugal","countryCode":"PT","region":null,"locality":null,"website":null,"badge":"Climbing spot","stat":"Sport climbing","tags":["Boulder"]}},{"type":"Feature","geometry":{"type":"Point","coordinates":[-9.43842,38.89023]},"properties":{"id":"w1107121843","name":"Teclado Direito","country":"Portugal","countryCode":"PT","region":null,"locality":null,"website":null,"badge":"Climbing spot","stat":"Natural crag","tags":["Basalt","Graded routes"]}},{"type":"Feature","geometry":{"type":"Point","coordinates":[-9.43813,38.89124]},"properties":{"id":"w1107121844","name":"Teclado Esquerdo","country":"Portugal","countryCode":"PT","region":null,"locality":null,"website":null,"badge":"Climbing spot","stat":"Natural crag","tags":["Basalt","Graded routes"]}},{"type":"Feature","geometry":{"type":"Point","coordinates":[-8.93652,38.49012]},"properties":{"id":"w876307546","name":"Termópilas","country":"Portugal","countryCode":"PT","region":null,"locality":null,"website":null,"badge":"Climbing spot","stat":"Natural crag","tags":["Limestone","Graded routes"]}},{"type":"Feature","geometry":{"type":"Point","coordinates":[-8.62173,41.18455]},"properties":{"id":"n13267464289","name":"The North Wall","country":"Portugal","countryCode":"PT","region":null,"locality":null,"website":null,"badge":"Climbing spot","stat":"Bouldering","tags":["Boulder"]}},{"type":"Feature","geometry":{"type":"Point","coordinates":[-8.93602,38.49023]},"properties":{"id":"w876307550","name":"Titãs","country":"Portugal","countryCode":"PT","region":null,"locality":null,"website":null,"badge":"Climbing spot","stat":"Natural crag","tags":["Limestone","Graded routes"]}},{"type":"Feature","geometry":{"type":"Point","coordinates":[-9.18791,38.7439]},"properties":{"id":"w484611121","name":"Torre de escalada de Monsanto","country":"Portugal","countryCode":"PT","region":null,"locality":null,"website":null,"badge":"Climbing spot","stat":"Climbing area","tags":[]}},{"type":"Feature","geometry":{"type":"Point","coordinates":[-8.17745,41.85068]},"properties":{"id":"w1060297955","name":"Torre Pequena","country":"Portugal","countryCode":"PT","region":null,"locality":null,"website":null,"badge":"Climbing spot","stat":"Natural crag","tags":["Granite"]}},{"type":"Feature","geometry":{"type":"Point","coordinates":[-8.93635,38.49015]},"properties":{"id":"w876307548","name":"Tróia","country":"Portugal","countryCode":"PT","region":null,"locality":null,"website":null,"badge":"Climbing spot","stat":"Natural crag","tags":["Limestone","Graded routes"]}},{"type":"Feature","geometry":{"type":"Point","coordinates":[-9.44761,38.69531]},"properties":{"id":"w1062208381","name":"Tubo","country":"Portugal","countryCode":"PT","region":null,"locality":null,"website":null,"badge":"Climbing spot","stat":"Natural crag","tags":["Limestone","Graded routes"]}},{"type":"Feature","geometry":{"type":"Point","coordinates":[-8.43361,40.21078]},"properties":{"id":"n12578631498","name":"upa!","country":"Portugal","countryCode":"PT","region":null,"locality":"Coimbra","website":"https://upaclimbing.pt","badge":"Climbing spot","stat":"Indoor climbing gym","tags":["Indoor"]}},{"type":"Feature","geometry":{"type":"Point","coordinates":[-8.23154,41.04696]},"properties":{"id":"n12339849074","name":"Uprel","country":"Portugal","countryCode":"PT","region":null,"locality":null,"website":null,"badge":"Climbing spot","stat":"Sport climbing","tags":["Boulder"]}},{"type":"Feature","geometry":{"type":"Point","coordinates":[-8.43288,41.12774]},"properties":{"id":"n12343221915","name":"Urso Fozi","country":"Portugal","countryCode":"PT","region":null,"locality":null,"website":null,"badge":"Climbing spot","stat":"Sport climbing","tags":[]}},{"type":"Feature","geometry":{"type":"Point","coordinates":[-9.17763,38.42432]},"properties":{"id":"w1095493644","name":"Varanda da Azóia","country":"Portugal","countryCode":"PT","region":null,"locality":null,"website":null,"badge":"Climbing spot","stat":"Natural crag","tags":["Limestone","Graded routes"]}},{"type":"Feature","geometry":{"type":"Point","coordinates":[-9.08384,38.43787]},"properties":{"id":"n13071339630","name":"Varandas","country":"Portugal","countryCode":"PT","region":null,"locality":null,"website":null,"badge":"Climbing spot","stat":"Natural crag","tags":["Limestone"]}},{"type":"Feature","geometry":{"type":"Point","coordinates":[-8.48413,41.14687]},"properties":{"id":"n12973252290","name":"Variante (Travessia)","country":"Portugal","countryCode":"PT","region":null,"locality":null,"website":null,"badge":"Climbing spot","stat":"Sport climbing","tags":[]}},{"type":"Feature","geometry":{"type":"Point","coordinates":[-8.48128,37.147]},"properties":{"id":"w1123666029","name":"Vertical Escalada","country":"Portugal","countryCode":"PT","region":null,"locality":"Estômbar","website":"https://verticalescalada.pt/","badge":"Climbing spot","stat":"Indoor climbing gym","tags":["Indoor"]}},{"type":"Feature","geometry":{"type":"Point","coordinates":[-9.16792,38.79078]},"properties":{"id":"n3681007153","name":"Vertical Wall - Escalada","country":"Portugal","countryCode":"PT","region":null,"locality":"Lisboa","website":"https://verticalwall.pt/","badge":"Climbing spot","stat":"Climbing area","tags":[]}},{"type":"Feature","geometry":{"type":"Point","coordinates":[-9.16793,38.79077]},"properties":{"id":"w364239029","name":"Vertical Wall Escalada","country":"Portugal","countryCode":"PT","region":null,"locality":null,"website":null,"badge":"Climbing spot","stat":"Indoor climbing gym","tags":["Indoor"]}},{"type":"Feature","geometry":{"type":"Point","coordinates":[-9.12178,38.43378]},"properties":{"id":"w888289265","name":"Vertigem","country":"Portugal","countryCode":"PT","region":null,"locality":null,"website":null,"badge":"Climbing spot","stat":"Natural crag","tags":["Limestone","Graded routes"]}},{"type":"Feature","geometry":{"type":"Point","coordinates":[-9.10203,38.7399]},"properties":{"id":"n3109770683","name":"Vertigo Climbing Center","country":"Portugal","countryCode":"PT","region":null,"locality":"Lisboa","website":"https://www.vertigoclimbing.pt/","badge":"Climbing spot","stat":"Indoor climbing gym","tags":["Indoor"]}},{"type":"Feature","geometry":{"type":"Point","coordinates":[-9.1026,38.76095]},"properties":{"id":"n13815321376","name":"Vertigo Oriente","country":"Portugal","countryCode":"PT","region":null,"locality":null,"website":"https://vertigoclimbing.pt/","badge":"Climbing spot","stat":"Climbing area","tags":[]}},{"type":"Feature","geometry":{"type":"Point","coordinates":[-8.42873,40.87756]},"properties":{"id":"n12974200889","name":"Very Fast","country":"Portugal","countryCode":"PT","region":null,"locality":null,"website":null,"badge":"Climbing spot","stat":"Sport climbing","tags":[]}},{"type":"Feature","geometry":{"type":"Point","coordinates":[-8.28195,41.58597]},"properties":{"id":"n12379395485","name":"Via do Diedro","country":"Portugal","countryCode":"PT","region":null,"locality":null,"website":null,"badge":"Climbing spot","stat":"Sport climbing","tags":[]}},{"type":"Feature","geometry":{"type":"Point","coordinates":[-8.43281,41.12765]},"properties":{"id":"n12323424201","name":"Via do escudo","country":"Portugal","countryCode":"PT","region":null,"locality":null,"website":null,"badge":"Climbing spot","stat":"Sport climbing","tags":[]}},{"type":"Feature","geometry":{"type":"Point","coordinates":[-8.43288,41.12773]},"properties":{"id":"n12343221914","name":"Via do Mário","country":"Portugal","countryCode":"PT","region":null,"locality":null,"website":null,"badge":"Climbing spot","stat":"Sport climbing","tags":[]}},{"type":"Feature","geometry":{"type":"Point","coordinates":[-8.48407,41.14688]},"properties":{"id":"n12973252295","name":"Via dos dois terços","country":"Portugal","countryCode":"PT","region":null,"locality":null,"website":null,"badge":"Climbing spot","stat":"Sport climbing","tags":[]}},{"type":"Feature","geometry":{"type":"Point","coordinates":[-8.48413,41.14687]},"properties":{"id":"n12973252292","name":"Via original","country":"Portugal","countryCode":"PT","region":null,"locality":null,"website":null,"badge":"Climbing spot","stat":"Sport climbing","tags":[]}},{"type":"Feature","geometry":{"type":"Point","coordinates":[-8.43396,41.12753]},"properties":{"id":"n12973018188","name":"Volare","country":"Portugal","countryCode":"PT","region":null,"locality":null,"website":null,"badge":"Climbing spot","stat":"Sport climbing","tags":[]}},{"type":"Feature","geometry":{"type":"Point","coordinates":[-8.42874,40.87767]},"properties":{"id":"n12974200893","name":"Zé Maria da Bouça","country":"Portugal","countryCode":"PT","region":null,"locality":null,"website":null,"badge":"Climbing spot","stat":"Sport climbing","tags":[]}},{"type":"Feature","geometry":{"type":"Point","coordinates":[-8.62127,41.11127]},"properties":{"id":"n12211876533","name":"Zone Climb","country":"Portugal","countryCode":"PT","region":null,"locality":"Mafamude e Vilar do Paraíso","website":"https://zone.com.pt/climb/","badge":"Climbing spot","stat":"Climbing area","tags":[]}},{"type":"Feature","geometry":{"type":"Point","coordinates":[-8.60003,41.11855]},"properties":{"id":"n12211876534","name":"Zone Murus","country":"Portugal","countryCode":"PT","region":null,"locality":null,"website":"https://murus.pt","badge":"Climbing spot","stat":"Climbing area","tags":[]}}]}