{"type":"FeatureCollection","features":[{"type":"Feature","geometry":{"type":"Point","coordinates":[-74.21532,41.73971]},"properties":{"id":"n9177447967","name":"1-800 Stick It Arête","country":"United States of America","countryCode":"US","region":null,"locality":null,"website":null,"badge":"Climbing spot","stat":"Sport climbing","tags":[]}},{"type":"Feature","geometry":{"type":"Point","coordinates":[-119.12723,37.77155]},"properties":{"id":"w1383887169","name":"1-Croft","country":"United States of America","countryCode":"US","region":null,"locality":null,"website":null,"badge":"Climbing spot","stat":"Climbing area","tags":[]}},{"type":"Feature","geometry":{"type":"Point","coordinates":[-119.10831,37.81368]},"properties":{"id":"w1383888139","name":"1-Farquhar","country":"United States of America","countryCode":"US","region":null,"locality":null,"website":null,"badge":"Climbing spot","stat":"Climbing area","tags":[]}},{"type":"Feature","geometry":{"type":"Point","coordinates":[-119.10701,37.81421]},"properties":{"id":"w1383888142","name":"1-Handegg","country":"United States of America","countryCode":"US","region":null,"locality":null,"website":null,"badge":"Climbing spot","stat":"Climbing area","tags":[]}},{"type":"Feature","geometry":{"type":"Point","coordinates":[-83.72194,37.64606]},"properties":{"id":"n7118300090","name":"10 lb Tumor","country":"United States of America","countryCode":"US","region":null,"locality":null,"website":null,"badge":"Climbing spot","stat":"Sport climbing","tags":["Sport"]}},{"type":"Feature","geometry":{"type":"Point","coordinates":[-117.00351,34.67204]},"properties":{"id":"w648631242","name":"100 Ft Tower 1S","country":"United States of America","countryCode":"US","region":null,"locality":null,"website":null,"badge":"Climbing spot","stat":"Climbing area","tags":[]}},{"type":"Feature","geometry":{"type":"Point","coordinates":[-83.73422,37.67715]},"properties":{"id":"n7231211187","name":"100 Ounces of Gold","country":"United States of America","countryCode":"US","region":null,"locality":null,"website":null,"badge":"Climbing spot","stat":"Sport climbing","tags":["Sport"]}},{"type":"Feature","geometry":{"type":"Point","coordinates":[-115.85324,45.82124]},"properties":{"id":"n8205957365","name":"2 Minutes To Midnight","country":"United States of America","countryCode":"US","region":null,"locality":null,"website":null,"badge":"Climbing spot","stat":"Climbing area","tags":[]}},{"type":"Feature","geometry":{"type":"Point","coordinates":[-83.71515,37.64949]},"properties":{"id":"n7192331511","name":"2-Fold","country":"United States of America","countryCode":"US","region":null,"locality":null,"website":null,"badge":"Climbing spot","stat":"Sport climbing","tags":["Sport"]}},{"type":"Feature","geometry":{"type":"Point","coordinates":[-119.10726,37.81409]},"properties":{"id":"w1383888141","name":"2-Gerstenegg","country":"United States of America","countryCode":"US","region":null,"locality":null,"website":null,"badge":"Climbing spot","stat":"Climbing area","tags":[]}},{"type":"Feature","geometry":{"type":"Point","coordinates":[-119.12757,37.77209]},"properties":{"id":"w1383887168","name":"2-Robinson","country":"United States of America","countryCode":"US","region":null,"locality":null,"website":null,"badge":"Climbing spot","stat":"Climbing area","tags":[]}},{"type":"Feature","geometry":{"type":"Point","coordinates":[-119.10814,37.81359]},"properties":{"id":"w1383888138","name":"2-Rowell","country":"United States of America","countryCode":"US","region":null,"locality":null,"website":null,"badge":"Climbing spot","stat":"Climbing area","tags":[]}},{"type":"Feature","geometry":{"type":"Point","coordinates":[-105.21812,38.63077]},"properties":{"id":"n4590157507","name":"20th Century Man","country":"United States of America","countryCode":"US","region":null,"locality":null,"website":"https://www.mountainproject.com/v/20th-century-man/105758676","badge":"Climbing spot","stat":"Sport climbing","tags":["Sport","Limestone"]}},{"type":"Feature","geometry":{"type":"Point","coordinates":[-105.22566,38.63184]},"properties":{"id":"w264954414","name":"2150 Wall","country":"United States of America","countryCode":"US","region":null,"locality":null,"website":null,"badge":"Climbing spot","stat":"Natural crag","tags":[]}},{"type":"Feature","geometry":{"type":"Point","coordinates":[-83.71753,37.65403]},"properties":{"id":"n7211951688","name":"27 Years of Climbing","country":"United States of America","countryCode":"US","region":null,"locality":null,"website":null,"badge":"Climbing spot","stat":"Sport climbing","tags":["Sport"]}},{"type":"Feature","geometry":{"type":"Point","coordinates":[-74.16545,41.145]},"properties":{"id":"n10932337632","name":"3 Bears Wall","country":"United States of America","countryCode":"US","region":null,"locality":null,"website":null,"badge":"Climbing spot","stat":"Natural crag","tags":[]}},{"type":"Feature","geometry":{"type":"Point","coordinates":[-96.36912,36.16489]},"properties":{"id":"n8150213495","name":"3 Fingers Bay","country":"United States of America","countryCode":"US","region":null,"locality":null,"website":null,"badge":"Climbing spot","stat":"Climbing area","tags":[]}},{"type":"Feature","geometry":{"type":"Point","coordinates":[-119.10803,37.81331]},"properties":{"id":"w1383888137","name":"3-Dawson","country":"United States of America","countryCode":"US","region":null,"locality":null,"website":null,"badge":"Climbing spot","stat":"Climbing area","tags":[]}},{"type":"Feature","geometry":{"type":"Point","coordinates":[-119.10749,37.81402]},"properties":{"id":"w1383888140","name":"3-Eldorado","country":"United States of America","countryCode":"US","region":null,"locality":null,"website":null,"badge":"Climbing spot","stat":"Climbing area","tags":[]}},{"type":"Feature","geometry":{"type":"Point","coordinates":[-119.12779,37.7726]},"properties":{"id":"w1383887167","name":"3-Talsky","country":"United States of America","countryCode":"US","region":null,"locality":null,"website":null,"badge":"Climbing spot","stat":"Climbing area","tags":[]}},{"type":"Feature","geometry":{"type":"Point","coordinates":[-73.75645,44.14403]},"properties":{"id":"w1416330517","name":"3.2","country":"United States of America","countryCode":"US","region":null,"locality":null,"website":null,"badge":"Climbing spot","stat":"Trad climbing","tags":["Trad"]}},{"type":"Feature","geometry":{"type":"Point","coordinates":[-90.01964,44.04449]},"properties":{"id":"n6725106157","name":"303 Spire","country":"United States of America","countryCode":"US","region":null,"locality":null,"website":null,"badge":"Climbing spot","stat":"Climbing area","tags":[]}},{"type":"Feature","geometry":{"type":"Point","coordinates":[-117.08309,34.53693]},"properties":{"id":"w1454989643","name":"3rd Tier","country":"United States of America","countryCode":"US","region":null,"locality":null,"website":null,"badge":"Climbing spot","stat":"Climbing area","tags":[]}},{"type":"Feature","geometry":{"type":"Point","coordinates":[-119.10778,37.813]},"properties":{"id":"w1383888136","name":"4-Clyde","country":"United States of America","countryCode":"US","region":null,"locality":null,"website":null,"badge":"Climbing spot","stat":"Climbing area","tags":[]}},{"type":"Feature","geometry":{"type":"Point","coordinates":[-119.12809,37.77321]},"properties":{"id":"w1383887166","name":"4-Search And Rescue","country":"United States of America","countryCode":"US","region":null,"locality":null,"website":null,"badge":"Climbing spot","stat":"Climbing area","tags":[]}},{"type":"Feature","geometry":{"type":"Point","coordinates":[-76.45515,40.23858]},"properties":{"id":"w842815411","name":"45 Area Boulders","country":"United States of America","countryCode":"US","region":null,"locality":null,"website":null,"badge":"Climbing spot","stat":"Bouldering","tags":["Boulder"]}},{"type":"Feature","geometry":{"type":"Point","coordinates":[-121.14391,44.36699]},"properties":{"id":"n5111864829","name":"5 Gallon Buckets","country":"United States of America","countryCode":"US","region":null,"locality":null,"website":"https://www.mountainproject.com/v/5-gallon-buckets/105789060","badge":"Climbing spot","stat":"Sport climbing","tags":["Sport"]}},{"type":"Feature","geometry":{"type":"Point","coordinates":[-119.10752,37.81271]},"properties":{"id":"w1383888135","name":"5-Brower","country":"United States of America","countryCode":"US","region":null,"locality":null,"website":null,"badge":"Climbing spot","stat":"Climbing area","tags":[]}},{"type":"Feature","geometry":{"type":"Point","coordinates":[-119.12852,37.77363]},"properties":{"id":"w1383887165","name":"5-Erb","country":"United States of America","countryCode":"US","region":null,"locality":null,"website":null,"badge":"Climbing spot","stat":"Climbing area","tags":[]}},{"type":"Feature","geometry":{"type":"Point","coordinates":[-83.70977,37.65376]},"properties":{"id":"n7207362489","name":"5.10 Until Lee and Jeff Do It","country":"United States of America","countryCode":"US","region":null,"locality":null,"website":null,"badge":"Climbing spot","stat":"Sport climbing","tags":["Sport"]}},{"type":"Feature","geometry":{"type":"Point","coordinates":[-73.74298,44.13609]},"properties":{"id":"w1416336725","name":"5.6 Start","country":"United States of America","countryCode":"US","region":null,"locality":null,"website":null,"badge":"Climbing spot","stat":"Trad climbing","tags":["Trad"]}},{"type":"Feature","geometry":{"type":"Point","coordinates":[-71.83802,43.80113]},"properties":{"id":"w171171402","name":"5.8 Crag","country":"United States of America","countryCode":"US","region":null,"locality":null,"website":null,"badge":"Climbing spot","stat":"Sport climbing","tags":["Sport","Trad"]}},{"type":"Feature","geometry":{"type":"Point","coordinates":[-111.77972,41.74409]},"properties":{"id":"n13753147772","name":"5.8 Wall","country":"United States of America","countryCode":"US","region":null,"locality":null,"website":null,"badge":"Climbing spot","stat":"Climbing area","tags":[]}},{"type":"Feature","geometry":{"type":"Point","coordinates":[-119.12886,37.77374]},"properties":{"id":"w1383887164","name":"6-Franosch","country":"United States of America","countryCode":"US","region":null,"locality":null,"website":null,"badge":"Climbing spot","stat":"Climbing area","tags":[]}},{"type":"Feature","geometry":{"type":"Point","coordinates":[-119.10741,37.81247]},"properties":{"id":"w1383888134","name":"6-Sharma","country":"United States of America","countryCode":"US","region":null,"locality":null,"website":null,"badge":"Climbing spot","stat":"Climbing area","tags":[]}},{"type":"Feature","geometry":{"type":"Point","coordinates":[-83.734,37.6756]},"properties":{"id":"n7231213186","name":"7-11","country":"United States of America","countryCode":"US","region":null,"locality":null,"website":null,"badge":"Climbing spot","stat":"Sport climbing","tags":["Sport"]}},{"type":"Feature","geometry":{"type":"Point","coordinates":[-119.10698,37.81216]},"properties":{"id":"w1383888132","name":"7-Hill","country":"United States of America","countryCode":"US","region":null,"locality":null,"website":null,"badge":"Climbing spot","stat":"Climbing area","tags":[]}},{"type":"Feature","geometry":{"type":"Point","coordinates":[-119.12869,37.77406]},"properties":{"id":"w1383887162","name":"7-Lewis","country":"United States of America","countryCode":"US","region":null,"locality":null,"website":null,"badge":"Climbing spot","stat":"Climbing area","tags":[]}},{"type":"Feature","geometry":{"type":"Point","coordinates":[-83.70789,37.64459]},"properties":{"id":"n7123582790","name":"72 Hour Energy","country":"United States of America","countryCode":"US","region":null,"locality":null,"website":null,"badge":"Climbing spot","stat":"Sport climbing","tags":["Sport"]}},{"type":"Feature","geometry":{"type":"Point","coordinates":[-122.61878,38.65164]},"properties":{"id":"n7218084030","name":"7up","country":"United States of America","countryCode":"US","region":null,"locality":null,"website":null,"badge":"Climbing spot","stat":"Sport climbing","tags":[]}},{"type":"Feature","geometry":{"type":"Point","coordinates":[-83.71011,37.64663]},"properties":{"id":"n7132067097","name":"8 Ball","country":"United States of America","countryCode":"US","region":null,"locality":null,"website":null,"badge":"Climbing spot","stat":"Sport climbing","tags":["Sport"]}},{"type":"Feature","geometry":{"type":"Point","coordinates":[-119.10684,37.81134]},"properties":{"id":"w1383888130","name":"8-Dostie","country":"United States of America","countryCode":"US","region":null,"locality":null,"website":null,"badge":"Climbing spot","stat":"Climbing area","tags":[]}},{"type":"Feature","geometry":{"type":"Point","coordinates":[-119.12891,37.77397]},"properties":{"id":"w1383887163","name":"8-Moynier","country":"United States of America","countryCode":"US","region":null,"locality":null,"website":null,"badge":"Climbing spot","stat":"Climbing area","tags":[]}},{"type":"Feature","geometry":{"type":"Point","coordinates":[-72.86031,44.37817]},"properties":{"id":"w1413056550","name":"82 Crag","country":"United States of America","countryCode":"US","region":null,"locality":null,"website":null,"badge":"Climbing spot","stat":"Sport climbing","tags":["Sport","Trad"]}},{"type":"Feature","geometry":{"type":"Point","coordinates":[-72.86031,44.37817]},"properties":{"id":"r19335252","name":"82 Crag","country":"United States of America","countryCode":"US","region":null,"locality":null,"website":null,"badge":"Climbing spot","stat":"Climbing area","tags":[]}},{"type":"Feature","geometry":{"type":"Point","coordinates":[-111.75076,37.14586]},"properties":{"id":"n1755078475","name":"9 foot dam","country":"United States of America","countryCode":"US","region":null,"locality":null,"website":null,"badge":"Climbing spot","stat":"Climbing area","tags":[]}},{"type":"Feature","geometry":{"type":"Point","coordinates":[-119.10657,37.81133]},"properties":{"id":"w1383888131","name":"9-Chouinard","country":"United States of America","countryCode":"US","region":null,"locality":null,"website":null,"badge":"Climbing spot","stat":"Climbing area","tags":[]}},{"type":"Feature","geometry":{"type":"Point","coordinates":[-119.12895,37.77418]},"properties":{"id":"w1383887161","name":"9-Secor","country":"United States of America","countryCode":"US","region":null,"locality":null,"website":null,"badge":"Climbing spot","stat":"Climbing area","tags":[]}},{"type":"Feature","geometry":{"type":"Point","coordinates":[-120.11652,38.95057]},"properties":{"id":"n4370642592","name":"90 Foot Wall","country":"United States of America","countryCode":"US","region":null,"locality":null,"website":null,"badge":"Climbing spot","stat":"Climbing area","tags":[]}},{"type":"Feature","geometry":{"type":"Point","coordinates":[-83.71744,37.6542]},"properties":{"id":"n7211951785","name":"A Brief History of Climb","country":"United States of America","countryCode":"US","region":null,"locality":null,"website":null,"badge":"Climbing spot","stat":"Sport climbing","tags":["Sport"]}},{"type":"Feature","geometry":{"type":"Point","coordinates":[-83.71812,37.64549]},"properties":{"id":"n7118515587","name":"A Cat Amongst the Pigeons","country":"United States of America","countryCode":"US","region":null,"locality":null,"website":null,"badge":"Climbing spot","stat":"Sport climbing","tags":["Sport"]}},{"type":"Feature","geometry":{"type":"Point","coordinates":[-83.71605,37.65412]},"properties":{"id":"n7209504188","name":"A Chip Off the Old Sturnum","country":"United States of America","countryCode":"US","region":null,"locality":null,"website":null,"badge":"Climbing spot","stat":"Sport climbing","tags":["Trad"]}},{"type":"Feature","geometry":{"type":"Point","coordinates":[-83.71152,37.64078]},"properties":{"id":"n12599259781","name":"A Crash Pad Love Story","country":"United States of America","countryCode":"US","region":null,"locality":null,"website":null,"badge":"Climbing spot","stat":"Sport climbing","tags":[]}},{"type":"Feature","geometry":{"type":"Point","coordinates":[-71.56843,42.57131]},"properties":{"id":"n10059522287","name":"A Little Slice of Heaven","country":"United States of America","countryCode":"US","region":null,"locality":null,"website":null,"badge":"Climbing spot","stat":"Bouldering","tags":[]}},{"type":"Feature","geometry":{"type":"Point","coordinates":[-74.21593,41.73981]},"properties":{"id":"n13142704647","name":"A Portrait of the Artist as a Young Man","country":"United States of America","countryCode":"US","region":null,"locality":null,"website":null,"badge":"Climbing spot","stat":"Sport climbing","tags":["Trad"]}},{"type":"Feature","geometry":{"type":"Point","coordinates":[-83.71808,37.64535]},"properties":{"id":"n7118515390","name":"A Spot of Bother","country":"United States of America","countryCode":"US","region":null,"locality":null,"website":null,"badge":"Climbing spot","stat":"Sport climbing","tags":["Trad"]}},{"type":"Feature","geometry":{"type":"Point","coordinates":[-83.72479,37.65311]},"properties":{"id":"n7200617486","name":"A Wave New World","country":"United States of America","countryCode":"US","region":null,"locality":null,"website":null,"badge":"Climbing spot","stat":"Sport climbing","tags":["Sport"]}},{"type":"Feature","geometry":{"type":"Point","coordinates":[-72.91207,44.38469]},"properties":{"id":"w1096144094","name":"A-Sharp","country":"United States of America","countryCode":"US","region":null,"locality":null,"website":null,"badge":"Climbing spot","stat":"Trad climbing","tags":["Trad"]}},{"type":"Feature","geometry":{"type":"Point","coordinates":[-83.70972,37.65199]},"properties":{"id":"n7203497588","name":"A-shiff Boulder","country":"United States of America","countryCode":"US","region":null,"locality":null,"website":null,"badge":"Climbing spot","stat":"Sport climbing","tags":["Boulder"]}},{"type":"Feature","geometry":{"type":"Point","coordinates":[-83.71417,37.64988]},"properties":{"id":"n7192331686","name":"A.L.F.","country":"United States of America","countryCode":"US","region":null,"locality":null,"website":null,"badge":"Climbing spot","stat":"Sport climbing","tags":["Sport"]}},{"type":"Feature","geometry":{"type":"Point","coordinates":[-83.73286,37.67651]},"properties":{"id":"n7215443497","name":"A1A","country":"United States of America","countryCode":"US","region":null,"locality":null,"website":null,"badge":"Climbing spot","stat":"Sport climbing","tags":["Sport"]}},{"type":"Feature","geometry":{"type":"Point","coordinates":[-90.02052,44.046]},"properties":{"id":"n6725106160","name":"Above Anthrax","country":"United States of America","countryCode":"US","region":null,"locality":null,"website":null,"badge":"Climbing spot","stat":"Climbing area","tags":[]}},{"type":"Feature","geometry":{"type":"Point","coordinates":[-83.71076,37.64925]},"properties":{"id":"n7192331523","name":"ABR","country":"United States of America","countryCode":"US","region":null,"locality":null,"website":null,"badge":"Climbing spot","stat":"Sport climbing","tags":["Sport"]}},{"type":"Feature","geometry":{"type":"Point","coordinates":[-121.57298,47.56044]},"properties":{"id":"w1414545680","name":"Absolute Serenity Now (P1-7)","country":"United States of America","countryCode":"US","region":null,"locality":null,"website":null,"badge":"Climbing spot","stat":"Climbing area","tags":[]}},{"type":"Feature","geometry":{"type":"Point","coordinates":[-83.72391,37.65301]},"properties":{"id":"n7200616687","name":"Absolute Zero","country":"United States of America","countryCode":"US","region":null,"locality":null,"website":null,"badge":"Climbing spot","stat":"Sport climbing","tags":["Sport"]}},{"type":"Feature","geometry":{"type":"Point","coordinates":[-119.61251,37.73477]},"properties":{"id":"n6839490865","name":"Absolutely Free","country":"United States of America","countryCode":"US","region":null,"locality":null,"website":null,"badge":"Climbing spot","stat":"Climbing area","tags":[]}},{"type":"Feature","geometry":{"type":"Point","coordinates":[-105.21821,38.63082]},"properties":{"id":"n4590157512","name":"Access All Areas","country":"United States of America","countryCode":"US","region":null,"locality":null,"website":"https://www.mountainproject.com/v/access-all-areas/106036927","badge":"Climbing spot","stat":"Sport climbing","tags":["Sport","Limestone"]}},{"type":"Feature","geometry":{"type":"Point","coordinates":[-83.66648,37.84904]},"properties":{"id":"n7313037392","name":"Accidentally Kelly Street","country":"United States of America","countryCode":"US","region":null,"locality":null,"website":null,"badge":"Climbing spot","stat":"Sport climbing","tags":["Trad"]}},{"type":"Feature","geometry":{"type":"Point","coordinates":[-73.06704,42.0705]},"properties":{"id":"n11089450725","name":"Acorn Face","country":"United States of America","countryCode":"US","region":null,"locality":null,"website":null,"badge":"Climbing spot","stat":"Natural crag","tags":[]}},{"type":"Feature","geometry":{"type":"Point","coordinates":[-83.71915,37.65056]},"properties":{"id":"n7192354887","name":"Action over Apathy","country":"United States of America","countryCode":"US","region":null,"locality":null,"website":null,"badge":"Climbing spot","stat":"Sport climbing","tags":["Sport"]}},{"type":"Feature","geometry":{"type":"Point","coordinates":[-83.38732,33.96872]},"properties":{"id":"w899485828","name":"Active Climbing","country":"United States of America","countryCode":"US","region":null,"locality":"Athens","website":null,"badge":"Climbing spot","stat":"Indoor climbing gym","tags":["Indoor"]}},{"type":"Feature","geometry":{"type":"Point","coordinates":[-82.14016,33.48112]},"properties":{"id":"n11218920936","name":"Active Climbing Augusta","country":"United States of America","countryCode":"US","region":null,"locality":null,"website":"https://www.activeclimbingaugusta.com","badge":"Climbing spot","stat":"Climbing area","tags":[]}},{"type":"Feature","geometry":{"type":"Point","coordinates":[-121.67558,47.43965]},"properties":{"id":"n1947745654","name":"Actual Cave","country":"United States of America","countryCode":"US","region":null,"locality":null,"website":null,"badge":"Climbing spot","stat":"Climbing area","tags":[]}},{"type":"Feature","geometry":{"type":"Point","coordinates":[-91.2056,43.81083]},"properties":{"id":"n6718383584","name":"Adidas Wall","country":"United States of America","countryCode":"US","region":null,"locality":null,"website":null,"badge":"Climbing spot","stat":"Climbing area","tags":[]}},{"type":"Feature","geometry":{"type":"Point","coordinates":[-83.73746,37.67892]},"properties":{"id":"n7269712387","name":"Admiral Ackbar","country":"United States of America","countryCode":"US","region":null,"locality":null,"website":null,"badge":"Climbing spot","stat":"Sport climbing","tags":["Trad"]}},{"type":"Feature","geometry":{"type":"Point","coordinates":[-115.43602,36.15517]},"properties":{"id":"n10167994782","name":"Adoption","country":"United States of America","countryCode":"US","region":null,"locality":null,"website":"https://www.mountainproject.com/route/106934998/adoption","badge":"Climbing spot","stat":"Sport climbing","tags":["Sport"]}},{"type":"Feature","geometry":{"type":"Point","coordinates":[-84.058,34.07316]},"properties":{"id":"n10027773371","name":"Adrenaline Climbing","country":"United States of America","countryCode":"US","region":"GA","locality":"Suwanee","website":"https://www.adrenalineclimbing.com/","badge":"Climbing spot","stat":"Indoor climbing gym","tags":["Indoor"]}},{"type":"Feature","geometry":{"type":"Point","coordinates":[-84.56095,34.01152]},"properties":{"id":"n12308471940","name":"Adventure Air Sports","country":"United States of America","countryCode":"US","region":null,"locality":null,"website":"https://kennesaw.adventureairsports.com/","badge":"Climbing spot","stat":"Indoor climbing gym","tags":["Indoor"]}},{"type":"Feature","geometry":{"type":"Point","coordinates":[-80.65975,28.19512]},"properties":{"id":"w759841127","name":"Adventure HQ","country":"United States of America","countryCode":"US","region":null,"locality":null,"website":null,"badge":"Climbing spot","stat":"Indoor climbing gym","tags":["Indoor"]}},{"type":"Feature","geometry":{"type":"Point","coordinates":[-88.17666,43.08451]},"properties":{"id":"w657702461","name":"Adventure Rock","country":"United States of America","countryCode":"US","region":"WI","locality":"Brookfield","website":"https://adventurerock.com/about/brookfield/","badge":"Climbing spot","stat":"Indoor climbing gym","tags":["Indoor"]}},{"type":"Feature","geometry":{"type":"Point","coordinates":[-87.89522,43.05978]},"properties":{"id":"w677344235","name":"Adventure Rock","country":"United States of America","countryCode":"US","region":"WI","locality":"Milwaukee","website":"https://adventurerock.com/about/milwaukee/","badge":"Climbing spot","stat":"Indoor climbing gym","tags":["Indoor"]}},{"type":"Feature","geometry":{"type":"Point","coordinates":[-87.91304,43.02491]},"properties":{"id":"w778106113","name":"Adventure Rock","country":"United States of America","countryCode":"US","region":"WI","locality":"Milwaukee","website":"https://adventurerock.com/about/walkerspoint/","badge":"Climbing spot","stat":"Indoor climbing gym","tags":["Indoor"]}},{"type":"Feature","geometry":{"type":"Point","coordinates":[-74.16701,41.14642]},"properties":{"id":"w1201737906","name":"Adventure Stories","country":"United States of America","countryCode":"US","region":null,"locality":null,"website":null,"badge":"Climbing spot","stat":"Natural crag","tags":[]}},{"type":"Feature","geometry":{"type":"Point","coordinates":[-116.19469,34.03961]},"properties":{"id":"r19691819","name":"AFPA Rock","country":"United States of America","countryCode":"US","region":null,"locality":null,"website":null,"badge":"Climbing spot","stat":"Climbing area","tags":[]}},{"type":"Feature","geometry":{"type":"Point","coordinates":[-83.59778,37.82874]},"properties":{"id":"n7321846986","name":"Africa","country":"United States of America","countryCode":"US","region":null,"locality":null,"website":null,"badge":"Climbing spot","stat":"Sport climbing","tags":["Trad"]}},{"type":"Feature","geometry":{"type":"Point","coordinates":[-116.16409,34.09626]},"properties":{"id":"n9347413460","name":"Africa Face","country":"United States of America","countryCode":"US","region":null,"locality":null,"website":null,"badge":"Climbing spot","stat":"Natural crag","tags":[]}},{"type":"Feature","geometry":{"type":"Point","coordinates":[-116.15694,34.08392]},"properties":{"id":"n10566874840","name":"Afro Awareness Week","country":"United States of America","countryCode":"US","region":null,"locality":null,"website":null,"badge":"Climbing spot","stat":"Natural crag","tags":[]}},{"type":"Feature","geometry":{"type":"Point","coordinates":[-119.61899,37.73059]},"properties":{"id":"w440610489","name":"After Six","country":"United States of America","countryCode":"US","region":null,"locality":null,"website":null,"badge":"Climbing spot","stat":"Climbing area","tags":[]}},{"type":"Feature","geometry":{"type":"Point","coordinates":[-118.67715,37.38133]},"properties":{"id":"w1383890673","name":"After Thought","country":"United States of America","countryCode":"US","region":null,"locality":null,"website":null,"badge":"Climbing spot","stat":"Climbing area","tags":[]}},{"type":"Feature","geometry":{"type":"Point","coordinates":[-83.64822,37.83688]},"properties":{"id":"n7313102386","name":"Afterburner","country":"United States of America","countryCode":"US","region":null,"locality":null,"website":null,"badge":"Climbing spot","stat":"Sport climbing","tags":["Trad"]}},{"type":"Feature","geometry":{"type":"Point","coordinates":[-73.75899,44.14519]},"properties":{"id":"w1416330515","name":"Afternoon Delight","country":"United States of America","countryCode":"US","region":null,"locality":null,"website":null,"badge":"Climbing spot","stat":"Trad climbing","tags":["Trad"]}},{"type":"Feature","geometry":{"type":"Point","coordinates":[-121.57559,47.81918]},"properties":{"id":"n13113494729","name":"Agent Orange","country":"United States of America","countryCode":"US","region":null,"locality":null,"website":null,"badge":"Climbing spot","stat":"Sport climbing","tags":["Sport"]}},{"type":"Feature","geometry":{"type":"Point","coordinates":[-121.14249,44.36744]},"properties":{"id":"n4578677469","name":"Aggro Gully","country":"United States of America","countryCode":"US","region":null,"locality":null,"website":null,"badge":"Climbing spot","stat":"Climbing area","tags":[]}},{"type":"Feature","geometry":{"type":"Point","coordinates":[-119.57476,37.74772]},"properties":{"id":"r14151105","name":"Ahwahnee Boulders","country":"United States of America","countryCode":"US","region":null,"locality":null,"website":null,"badge":"Climbing spot","stat":"Climbing area","tags":[]}},{"type":"Feature","geometry":{"type":"Point","coordinates":[-119.57355,37.74728]},"properties":{"id":"w1213044114","name":"Ahwahnee Fin Boulder","country":"United States of America","countryCode":"US","region":null,"locality":null,"website":null,"badge":"Climbing spot","stat":"Bouldering","tags":["Boulder","Granite"]}},{"type":"Feature","geometry":{"type":"Point","coordinates":[-69.66516,44.56837]},"properties":{"id":"n11357932094","name":"Aidan's Climbing & Bouldering Wall","country":"United States of America","countryCode":"US","region":null,"locality":null,"website":null,"badge":"Climbing spot","stat":"Indoor climbing gym","tags":["Indoor"]}},{"type":"Feature","geometry":{"type":"Point","coordinates":[-77.54745,41.80409]},"properties":{"id":"w1273166173","name":"Aider's Rock","country":"United States of America","countryCode":"US","region":null,"locality":null,"website":null,"badge":"Climbing spot","stat":"Natural crag","tags":[]}},{"type":"Feature","geometry":{"type":"Point","coordinates":[-116.1786,34.01521]},"properties":{"id":"w1369184958","name":"Aiguille de Joshua Tree","country":"United States of America","countryCode":"US","region":null,"locality":null,"website":null,"badge":"Climbing spot","stat":"Climbing area","tags":[]}},{"type":"Feature","geometry":{"type":"Point","coordinates":[-81.34895,28.69138]},"properties":{"id":"n2853709364","name":"Aiguille Rock Climbing Center","country":"United States of America","countryCode":"US","region":null,"locality":null,"website":null,"badge":"Climbing spot","stat":"Indoor climbing gym","tags":["Indoor"]}},{"type":"Feature","geometry":{"type":"Point","coordinates":[-120.6813,47.58831]},"properties":{"id":"w1284770637","name":"Ain't Misbehavin'","country":"United States of America","countryCode":"US","region":null,"locality":null,"website":null,"badge":"Climbing spot","stat":"Sport climbing","tags":["Sport"]}},{"type":"Feature","geometry":{"type":"Point","coordinates":[-90.01969,44.04466]},"properties":{"id":"n6725106155","name":"Air Spire","country":"United States of America","countryCode":"US","region":null,"locality":null,"website":null,"badge":"Climbing spot","stat":"Climbing area","tags":[]}},{"type":"Feature","geometry":{"type":"Point","coordinates":[-74.17657,41.74703]},"properties":{"id":"n12248490151","name":"Airy Aria","country":"United States of America","countryCode":"US","region":null,"locality":null,"website":null,"badge":"Climbing spot","stat":"Climbing area","tags":[]}},{"type":"Feature","geometry":{"type":"Point","coordinates":[-86.45838,36.32001]},"properties":{"id":"w303563727","name":"Al Henderikson COPE Tower","country":"United States of America","countryCode":"US","region":null,"locality":null,"website":null,"badge":"Climbing spot","stat":"Indoor climbing gym","tags":["Indoor"]}},{"type":"Feature","geometry":{"type":"Point","coordinates":[-118.92511,37.77479]},"properties":{"id":"w1383886379","name":"Al's Garage","country":"United States of America","countryCode":"US","region":null,"locality":null,"website":null,"badge":"Climbing spot","stat":"Climbing area","tags":[]}},{"type":"Feature","geometry":{"type":"Point","coordinates":[-116.18033,34.01876]},"properties":{"id":"w1370343743","name":"Alanis (Morrisette) Wall","country":"United States of America","countryCode":"US","region":null,"locality":null,"website":null,"badge":"Climbing spot","stat":"Climbing area","tags":[]}},{"type":"Feature","geometry":{"type":"Point","coordinates":[-75.5584,39.76915]},"properties":{"id":"w821265083","name":"Alapocas Rock Climbing Wall","country":"United States of America","countryCode":"US","region":null,"locality":null,"website":null,"badge":"Climbing spot","stat":"Indoor climbing gym","tags":["Indoor"]}},{"type":"Feature","geometry":{"type":"Point","coordinates":[-149.87099,61.19147]},"properties":{"id":"w828281293","name":"Alaska Rock Gym","country":"United States of America","countryCode":"US","region":"AK","locality":"Anchorage","website":null,"badge":"Climbing spot","stat":"Indoor climbing gym","tags":["Indoor"]}},{"type":"Feature","geometry":{"type":"Point","coordinates":[-73.79808,42.68828]},"properties":{"id":"n11227852985","name":"Albany's Indoor Rockgym (AIR)","country":"United States of America","countryCode":"US","region":null,"locality":null,"website":null,"badge":"Climbing spot","stat":"Indoor climbing gym","tags":["Indoor"]}},{"type":"Feature","geometry":{"type":"Point","coordinates":[-83.68174,37.64303]},"properties":{"id":"w652157372","name":"Alcatraz","country":"United States of America","countryCode":"US","region":null,"locality":null,"website":null,"badge":"Climbing spot","stat":"Natural crag","tags":[]}},{"type":"Feature","geometry":{"type":"Point","coordinates":[-84.29739,30.48059]},"properties":{"id":"w175342789","name":"Alchemy Climbing","country":"United States of America","countryCode":"US","region":"FL","locality":"Tallahassee","website":"https://movies8tallahassee.com/","badge":"Climbing spot","stat":"Indoor climbing gym","tags":["Indoor"]}},{"type":"Feature","geometry":{"type":"Point","coordinates":[-71.65761,43.99283]},"properties":{"id":"w1010781882","name":"Alchemy Wall","country":"United States of America","countryCode":"US","region":null,"locality":null,"website":null,"badge":"Climbing spot","stat":"Natural crag","tags":[]}},{"type":"Feature","geometry":{"type":"Point","coordinates":[-116.96945,33.00739]},"properties":{"id":"n13441685502","name":"Alcoa","country":"United States of America","countryCode":"US","region":null,"locality":null,"website":"https://www.mountainproject.com/route/105796658","badge":"Climbing spot","stat":"Sport climbing","tags":[]}},{"type":"Feature","geometry":{"type":"Point","coordinates":[-71.1741,42.32281]},"properties":{"id":"r15728750","name":"Alcove Area","country":"United States of America","countryCode":"US","region":null,"locality":null,"website":null,"badge":"Climbing spot","stat":"Climbing area","tags":[]}},{"type":"Feature","geometry":{"type":"Point","coordinates":[-117.1208,34.56068]},"properties":{"id":"w1454977813","name":"Alf Rock?","country":"United States of America","countryCode":"US","region":null,"locality":null,"website":null,"badge":"Climbing spot","stat":"Climbing area","tags":[]}},{"type":"Feature","geometry":{"type":"Point","coordinates":[-116.17759,34.02228]},"properties":{"id":"n8497636731","name":"Alf's Arête","country":"United States of America","countryCode":"US","region":null,"locality":null,"website":null,"badge":"Climbing spot","stat":"Climbing area","tags":[]}},{"type":"Feature","geometry":{"type":"Point","coordinates":[-118.56896,37.51069]},"properties":{"id":"w1383882196","name":"Alien Wall","country":"United States of America","countryCode":"US","region":null,"locality":null,"website":null,"badge":"Climbing spot","stat":"Climbing area","tags":[]}},{"type":"Feature","geometry":{"type":"Point","coordinates":[-96.61806,33.8294]},"properties":{"id":"n2916969733","name":"Alkaline Tide Boulder","country":"United States of America","countryCode":"US","region":null,"locality":null,"website":null,"badge":"Climbing spot","stat":"Climbing area","tags":[]}},{"type":"Feature","geometry":{"type":"Point","coordinates":[-83.71819,37.65233]},"properties":{"id":"n7211951793","name":"All Draws & No Brains","country":"United States of America","countryCode":"US","region":null,"locality":null,"website":null,"badge":"Climbing spot","stat":"Sport climbing","tags":["Sport"]}},{"type":"Feature","geometry":{"type":"Point","coordinates":[-83.73385,37.67545]},"properties":{"id":"n7231211088","name":"All Gold Everything","country":"United States of America","countryCode":"US","region":null,"locality":null,"website":null,"badge":"Climbing spot","stat":"Sport climbing","tags":["Sport"]}},{"type":"Feature","geometry":{"type":"Point","coordinates":[-83.72166,37.64391]},"properties":{"id":"n7188231190","name":"All Hands on Deck","country":"United States of America","countryCode":"US","region":null,"locality":null,"website":null,"badge":"Climbing spot","stat":"Sport climbing","tags":["Sport"]}},{"type":"Feature","geometry":{"type":"Point","coordinates":[-83.71131,37.64615]},"properties":{"id":"n7132066985","name":"All In","country":"United States of America","countryCode":"US","region":null,"locality":null,"website":null,"badge":"Climbing spot","stat":"Sport climbing","tags":["Sport"]}},{"type":"Feature","geometry":{"type":"Point","coordinates":[-83.71761,37.65377]},"properties":{"id":"n7211951693","name":"All That Glitters","country":"United States of America","countryCode":"US","region":null,"locality":null,"website":null,"badge":"Climbing spot","stat":"Sport climbing","tags":[]}},{"type":"Feature","geometry":{"type":"Point","coordinates":[-83.71755,37.65387]},"properties":{"id":"n7211951691","name":"All That Quivers","country":"United States of America","countryCode":"US","region":null,"locality":null,"website":null,"badge":"Climbing spot","stat":"Sport climbing","tags":["Trad"]}},{"type":"Feature","geometry":{"type":"Point","coordinates":[-83.70705,37.64469]},"properties":{"id":"n7123582705","name":"All That Twitters","country":"United States of America","countryCode":"US","region":null,"locality":null,"website":null,"badge":"Climbing spot","stat":"Sport climbing","tags":["Sport"]}},{"type":"Feature","geometry":{"type":"Point","coordinates":[-115.43072,36.1522]},"properties":{"id":"w1462980158","name":"All That, Jazz","country":"United States of America","countryCode":"US","region":null,"locality":null,"website":null,"badge":"Climbing spot","stat":"Trad climbing","tags":["Trad"]}},{"type":"Feature","geometry":{"type":"Point","coordinates":[-83.66843,37.81669]},"properties":{"id":"n7314110685","name":"All Things Considered","country":"United States of America","countryCode":"US","region":null,"locality":null,"website":null,"badge":"Climbing spot","stat":"Sport climbing","tags":["Sport"]}},{"type":"Feature","geometry":{"type":"Point","coordinates":[-118.5502,37.57641]},"properties":{"id":"w1383885193","name":"All Weather Wall","country":"United States of America","countryCode":"US","region":null,"locality":null,"website":null,"badge":"Climbing spot","stat":"Climbing area","tags":[]}},{"type":"Feature","geometry":{"type":"Point","coordinates":[-118.57497,37.52662]},"properties":{"id":"w1383884470","name":"All You Can Eat","country":"United States of America","countryCode":"US","region":null,"locality":null,"website":null,"badge":"Climbing spot","stat":"Climbing area","tags":[]}},{"type":"Feature","geometry":{"type":"Point","coordinates":[-117.05043,32.82661]},"properties":{"id":"n11377878045","name":"Alley Oop","country":"United States of America","countryCode":"US","region":null,"locality":null,"website":null,"badge":"Climbing spot","stat":"Climbing area","tags":[]}},{"type":"Feature","geometry":{"type":"Point","coordinates":[-117.05043,32.82661]},"properties":{"id":"r19377242","name":"Alley Oop Boulder","country":"United States of America","countryCode":"US","region":null,"locality":null,"website":null,"badge":"Climbing spot","stat":"Climbing area","tags":[]}},{"type":"Feature","geometry":{"type":"Point","coordinates":[-83.68507,37.64053]},"properties":{"id":"n7116988891","name":"Alpha Dog","country":"United States of America","countryCode":"US","region":null,"locality":null,"website":null,"badge":"Climbing spot","stat":"Sport climbing","tags":["Sport"]}},{"type":"Feature","geometry":{"type":"Point","coordinates":[-71.67496,44.03897]},"properties":{"id":"w404875699","name":"Alpine Adventures Outdoor Recreation","country":"United States of America","countryCode":"US","region":"NH","locality":"Lincoln","website":"https://alpinezipline.com/","badge":"Climbing spot","stat":"Indoor climbing gym","tags":[]}},{"type":"Feature","geometry":{"type":"Point","coordinates":[-121.13849,37.74832]},"properties":{"id":"w1316582078","name":"Alpine Climbing Adventure Fitness","country":"United States of America","countryCode":"US","region":"CA","locality":"Ripon","website":"https://climbatalpine.com","badge":"Climbing spot","stat":"Indoor climbing gym","tags":["Indoor"]}},{"type":"Feature","geometry":{"type":"Point","coordinates":[-76.18986,36.87042]},"properties":{"id":"n3811103454","name":"Alpine Climbing Tower","country":"United States of America","countryCode":"US","region":null,"locality":null,"website":null,"badge":"Climbing spot","stat":"Indoor climbing gym","tags":["Indoor"]}},{"type":"Feature","geometry":{"type":"Point","coordinates":[-90.93057,37.94359]},"properties":{"id":"n1758630015","name":"Alpine Tower","country":"United States of America","countryCode":"US","region":null,"locality":null,"website":null,"badge":"Climbing spot","stat":"Sport climbing","tags":[]}},{"type":"Feature","geometry":{"type":"Point","coordinates":[-77.92116,40.65983]},"properties":{"id":"w1175765874","name":"Alpine Tower with Giant Swing","country":"United States of America","countryCode":"US","region":null,"locality":null,"website":null,"badge":"Climbing spot","stat":"Climbing area","tags":[]}},{"type":"Feature","geometry":{"type":"Point","coordinates":[-116.17544,34.01771]},"properties":{"id":"w1370343738","name":"Alps Rock","country":"United States of America","countryCode":"US","region":null,"locality":null,"website":null,"badge":"Climbing spot","stat":"Climbing area","tags":[]}},{"type":"Feature","geometry":{"type":"Point","coordinates":[-111.8563,33.26344]},"properties":{"id":"w519274668","name":"Alta Boulders & Fitness","country":"United States of America","countryCode":"US","region":"AZ","locality":"Chandler","website":null,"badge":"Climbing spot","stat":"Indoor climbing gym","tags":[]}},{"type":"Feature","geometry":{"type":"Point","coordinates":[-111.69273,33.29014]},"properties":{"id":"w1491367168","name":"Alta Climbing & Fitness","country":"United States of America","countryCode":"US","region":"AZ","locality":"Gilbert","website":null,"badge":"Climbing spot","stat":"Indoor climbing gym","tags":["Indoor"]}},{"type":"Feature","geometry":{"type":"Point","coordinates":[-111.88426,33.63656]},"properties":{"id":"n10938672387","name":"Alta Climbing and Fitness","country":"United States of America","countryCode":"US","region":null,"locality":null,"website":null,"badge":"Climbing spot","stat":"Indoor climbing gym","tags":["Indoor"]}},{"type":"Feature","geometry":{"type":"Point","coordinates":[-70.97722,42.49428]},"properties":{"id":"w1037771217","name":"Always Sunny Wall","country":"United States of America","countryCode":"US","region":null,"locality":null,"website":null,"badge":"Climbing spot","stat":"Natural crag","tags":["Granite"]}},{"type":"Feature","geometry":{"type":"Point","coordinates":[-83.70936,37.6519]},"properties":{"id":"n7206931385","name":"Amarillo Sunset","country":"United States of America","countryCode":"US","region":null,"locality":null,"website":null,"badge":"Climbing spot","stat":"Sport climbing","tags":["Sport"]}},{"type":"Feature","geometry":{"type":"Point","coordinates":[-121.92631,37.84726]},"properties":{"id":"n4882444377","name":"Amazing Face","country":"United States of America","countryCode":"US","region":null,"locality":null,"website":null,"badge":"Climbing spot","stat":"Sport climbing","tags":[]}},{"type":"Feature","geometry":{"type":"Point","coordinates":[-121.67546,47.43997]},"properties":{"id":"n1947745689","name":"Amazonia","country":"United States of America","countryCode":"US","region":null,"locality":null,"website":null,"badge":"Climbing spot","stat":"Climbing area","tags":[]}},{"type":"Feature","geometry":{"type":"Point","coordinates":[-83.73434,37.6765]},"properties":{"id":"n7231212687","name":"Amelia's Birthday","country":"United States of America","countryCode":"US","region":null,"locality":null,"website":null,"badge":"Climbing spot","stat":"Sport climbing","tags":["Sport"]}},{"type":"Feature","geometry":{"type":"Point","coordinates":[-119.60347,37.74284]},"properties":{"id":"n3579698344","name":"Ament Arete","country":"United States of America","countryCode":"US","region":null,"locality":null,"website":null,"badge":"Climbing spot","stat":"Bouldering","tags":["Boulder"]}},{"type":"Feature","geometry":{"type":"Point","coordinates":[-83.64723,37.83763]},"properties":{"id":"n7313102189","name":"American Crack","country":"United States of America","countryCode":"US","region":null,"locality":null,"website":null,"badge":"Climbing spot","stat":"Sport climbing","tags":["Trad"]}},{"type":"Feature","geometry":{"type":"Point","coordinates":[-83.73763,37.6784]},"properties":{"id":"n7269712490","name":"American Dream","country":"United States of America","countryCode":"US","region":null,"locality":null,"website":null,"badge":"Climbing spot","stat":"Sport climbing","tags":["Sport"]}},{"type":"Feature","geometry":{"type":"Point","coordinates":[-83.71756,37.65351]},"properties":{"id":"n7211951698","name":"American Graffiti","country":"United States of America","countryCode":"US","region":null,"locality":null,"website":null,"badge":"Climbing spot","stat":"Sport climbing","tags":["Sport"]}},{"type":"Feature","geometry":{"type":"Point","coordinates":[-115.43903,36.15705]},"properties":{"id":"n11496171871","name":"American Sportsman","country":"United States of America","countryCode":"US","region":null,"locality":null,"website":null,"badge":"Climbing spot","stat":"Sport climbing","tags":[]}},{"type":"Feature","geometry":{"type":"Point","coordinates":[-83.64727,37.83758]},"properties":{"id":"n7313102288","name":"American Wall","country":"United States of America","countryCode":"US","region":null,"locality":null,"website":null,"badge":"Climbing spot","stat":"Sport climbing","tags":["Trad"]}},{"type":"Feature","geometry":{"type":"Point","coordinates":[-83.73312,37.676]},"properties":{"id":"n7215443504","name":"Amish Whoopie Cushion","country":"United States of America","countryCode":"US","region":null,"locality":null,"website":null,"badge":"Climbing spot","stat":"Sport climbing","tags":["Sport"]}},{"type":"Feature","geometry":{"type":"Point","coordinates":[-90.51976,43.04431]},"properties":{"id":"n6725127941","name":"Ampitheater Wall","country":"United States of America","countryCode":"US","region":null,"locality":null,"website":null,"badge":"Climbing spot","stat":"Climbing area","tags":[]}},{"type":"Feature","geometry":{"type":"Point","coordinates":[-83.72369,37.65232]},"properties":{"id":"n7200616597","name":"Amyloid Plaque Sport","country":"United States of America","countryCode":"US","region":null,"locality":null,"website":null,"badge":"Climbing spot","stat":"Sport climbing","tags":["Sport"]}},{"type":"Feature","geometry":{"type":"Point","coordinates":[-121.55807,47.82516]},"properties":{"id":"n12247537002","name":"An Act of Strange Boar","country":"United States of America","countryCode":"US","region":null,"locality":null,"website":null,"badge":"Climbing spot","stat":"Climbing area","tags":[]}},{"type":"Feature","geometry":{"type":"Point","coordinates":[-83.71804,37.64545]},"properties":{"id":"n7118515785","name":"Anchors with no route","country":"United States of America","countryCode":"US","region":null,"locality":null,"website":null,"badge":"Climbing spot","stat":"Sport climbing","tags":[]}},{"type":"Feature","geometry":{"type":"Point","coordinates":[-116.15579,34.08655]},"properties":{"id":"n10566874842","name":"Ancient Kingdom","country":"United States of America","countryCode":"US","region":null,"locality":null,"website":null,"badge":"Climbing spot","stat":"Natural crag","tags":[]}},{"type":"Feature","geometry":{"type":"Point","coordinates":[-115.41609,36.15967]},"properties":{"id":"w330971157","name":"Angel Dyno Boulder","country":"United States of America","countryCode":"US","region":null,"locality":null,"website":null,"badge":"Climbing spot","stat":"Bouldering","tags":["Sandstone"]}},{"type":"Feature","geometry":{"type":"Point","coordinates":[-83.71605,37.6538]},"properties":{"id":"n7209504189","name":"Anger Management","country":"United States of America","countryCode":"US","region":null,"locality":null,"website":null,"badge":"Climbing spot","stat":"Sport climbing","tags":["Trad"]}},{"type":"Feature","geometry":{"type":"Point","coordinates":[-83.72379,37.65282]},"properties":{"id":"n7200616590","name":"Angry Birds","country":"United States of America","countryCode":"US","region":null,"locality":null,"website":null,"badge":"Climbing spot","stat":"Sport climbing","tags":["Sport"]}},{"type":"Feature","geometry":{"type":"Point","coordinates":[-113.72299,42.08708]},"properties":{"id":"w858317013","name":"Animal Cracker","country":"United States of America","countryCode":"US","region":null,"locality":null,"website":null,"badge":"Climbing spot","stat":"Natural crag","tags":[]}},{"type":"Feature","geometry":{"type":"Point","coordinates":[-83.63954,37.73098]},"properties":{"id":"w652159302","name":"Animal Crackers Wall","country":"United States of America","countryCode":"US","region":null,"locality":null,"website":null,"badge":"Climbing spot","stat":"Natural crag","tags":[]}},{"type":"Feature","geometry":{"type":"Point","coordinates":[-105.41495,39.99835]},"properties":{"id":"n6736050066","name":"Animal World","country":"United States of America","countryCode":"US","region":null,"locality":null,"website":null,"badge":"Climbing spot","stat":"Natural crag","tags":[]}},{"type":"Feature","geometry":{"type":"Point","coordinates":[-116.17864,34.01507]},"properties":{"id":"w1369184957","name":"Ankle Breaker Rock","country":"United States of America","countryCode":"US","region":null,"locality":null,"website":null,"badge":"Climbing spot","stat":"Climbing area","tags":[]}},{"type":"Feature","geometry":{"type":"Point","coordinates":[-83.71899,37.65096]},"properties":{"id":"n7192354691","name":"Ankle Brute","country":"United States of America","countryCode":"US","region":null,"locality":null,"website":null,"badge":"Climbing spot","stat":"Sport climbing","tags":["Sport"]}},{"type":"Feature","geometry":{"type":"Point","coordinates":[-92.52181,44.5694]},"properties":{"id":"n4925335485","name":"Annadonia Area","country":"United States of America","countryCode":"US","region":null,"locality":null,"website":null,"badge":"Climbing spot","stat":"Climbing area","tags":[]}},{"type":"Feature","geometry":{"type":"Point","coordinates":[-83.67065,37.8147]},"properties":{"id":"n7314110509","name":"Another Doug Reed Route","country":"United States of America","countryCode":"US","region":null,"locality":null,"website":null,"badge":"Climbing spot","stat":"Sport climbing","tags":["Sport"]}},{"type":"Feature","geometry":{"type":"Point","coordinates":[-83.59621,37.82803]},"properties":{"id":"n7321846800","name":"Another Grunge","country":"United States of America","countryCode":"US","region":null,"locality":null,"website":null,"badge":"Climbing spot","stat":"Sport climbing","tags":["Trad"]}},{"type":"Feature","geometry":{"type":"Point","coordinates":[-90.02033,44.04694]},"properties":{"id":"n6725106159","name":"Anthrax Wall","country":"United States of America","countryCode":"US","region":null,"locality":null,"website":null,"badge":"Climbing spot","stat":"Climbing area","tags":[]}},{"type":"Feature","geometry":{"type":"Point","coordinates":[-83.59607,37.82799]},"properties":{"id":"n7321846803","name":"Anti-Gravity Acrobatics","country":"United States of America","countryCode":"US","region":null,"locality":null,"website":null,"badge":"Climbing spot","stat":"Sport climbing","tags":["Sport"]}},{"type":"Feature","geometry":{"type":"Point","coordinates":[-72.86869,44.37518]},"properties":{"id":"n5596503634","name":"Anxious","country":"United States of America","countryCode":"US","region":null,"locality":null,"website":null,"badge":"Climbing spot","stat":"Sport climbing","tags":["Sport"]}},{"type":"Feature","geometry":{"type":"Point","coordinates":[-72.86849,44.37544]},"properties":{"id":"n5596503641","name":"Anything For An A","country":"United States of America","countryCode":"US","region":null,"locality":null,"website":null,"badge":"Climbing spot","stat":"Sport climbing","tags":["Sport"]}},{"type":"Feature","geometry":{"type":"Point","coordinates":[-83.59725,37.8285]},"properties":{"id":"n7321846988","name":"Anything You Want","country":"United States of America","countryCode":"US","region":null,"locality":null,"website":null,"badge":"Climbing spot","stat":"Sport climbing","tags":["Boulder"]}},{"type":"Feature","geometry":{"type":"Point","coordinates":[-112.25569,33.57181]},"properties":{"id":"n11279810370","name":"Ape Index","country":"United States of America","countryCode":"US","region":"AZ","locality":"Peoria","website":"https://climbapeindex.com","badge":"Climbing spot","stat":"Indoor climbing gym","tags":["Indoor"]}},{"type":"Feature","geometry":{"type":"Point","coordinates":[-94.66973,38.93655]},"properties":{"id":"w661312246","name":"Apex Climbing Gym","country":"United States of America","countryCode":"US","region":"KS","locality":"Overland Park","website":"https://apexclimbinggym.com/","badge":"Climbing spot","stat":"Indoor climbing gym","tags":["Indoor"]}},{"type":"Feature","geometry":{"type":"Point","coordinates":[-86.18957,41.71049]},"properties":{"id":"w1222109706","name":"Apex Climbing Gym","country":"United States of America","countryCode":"US","region":null,"locality":null,"website":null,"badge":"Climbing spot","stat":"Indoor climbing gym","tags":["Indoor"]}},{"type":"Feature","geometry":{"type":"Point","coordinates":[-121.0455,45.64643]},"properties":{"id":"n5365248898","name":"Apocalypse Needles","country":"United States of America","countryCode":"US","region":null,"locality":null,"website":null,"badge":"Climbing spot","stat":"Trad climbing","tags":["Trad","Basalt"]}},{"type":"Feature","geometry":{"type":"Point","coordinates":[-83.71541,37.65299]},"properties":{"id":"n7209456585","name":"Apoplectic Chick from Missouri","country":"United States of America","countryCode":"US","region":null,"locality":null,"website":null,"badge":"Climbing spot","stat":"Sport climbing","tags":["Sport"]}},{"type":"Feature","geometry":{"type":"Point","coordinates":[-83.57532,37.80316]},"properties":{"id":"n7414758103","name":"Appalachian Spring","country":"United States of America","countryCode":"US","region":null,"locality":null,"website":null,"badge":"Climbing spot","stat":"Sport climbing","tags":["Sport"]}},{"type":"Feature","geometry":{"type":"Point","coordinates":[-105.21785,38.63066]},"properties":{"id":"n4590157495","name":"Applauding Eagle","country":"United States of America","countryCode":"US","region":null,"locality":null,"website":"https://www.mountainproject.com/v/applauding-eagle/108431662","badge":"Climbing spot","stat":"Sport climbing","tags":["Sport","Limestone"]}},{"type":"Feature","geometry":{"type":"Point","coordinates":[-96.02328,41.21017]},"properties":{"id":"n8149840852","name":"Approach Climbing Gym","country":"United States of America","countryCode":"US","region":null,"locality":null,"website":"https://omaharockgym.com/","badge":"Climbing spot","stat":"Climbing area","tags":[]}},{"type":"Feature","geometry":{"type":"Point","coordinates":[-105.38001,40.43635]},"properties":{"id":"w729113477","name":"Approach Crag","country":"United States of America","countryCode":"US","region":null,"locality":null,"website":null,"badge":"Climbing spot","stat":"Natural crag","tags":[]}},{"type":"Feature","geometry":{"type":"Point","coordinates":[-111.69084,39.56323]},"properties":{"id":"w1177705137","name":"Approach Trail to Craggenzenden","country":"United States of America","countryCode":"US","region":null,"locality":null,"website":null,"badge":"Climbing spot","stat":"Climbing area","tags":[]}},{"type":"Feature","geometry":{"type":"Point","coordinates":[-88.2097,40.1251]},"properties":{"id":"n12729159172","name":"AquaClimb Sport","country":"United States of America","countryCode":"US","region":null,"locality":null,"website":null,"badge":"Climbing spot","stat":"Indoor climbing gym","tags":["Indoor"]}},{"type":"Feature","geometry":{"type":"Point","coordinates":[-83.66492,37.81506]},"properties":{"id":"n7314110885","name":"Aquaduck Pocket","country":"United States of America","countryCode":"US","region":null,"locality":null,"website":null,"badge":"Climbing spot","stat":"Sport climbing","tags":["Sport"]}},{"type":"Feature","geometry":{"type":"Point","coordinates":[-83.68392,37.64181]},"properties":{"id":"n12763486284","name":"Aquagenic Urticaria","country":"United States of America","countryCode":"US","region":null,"locality":null,"website":null,"badge":"Climbing spot","stat":"Sport climbing","tags":["Sport"]}},{"type":"Feature","geometry":{"type":"Point","coordinates":[-103.55854,43.843]},"properties":{"id":"w694147024","name":"Aquarium Rock","country":"United States of America","countryCode":"US","region":null,"locality":null,"website":null,"badge":"Climbing spot","stat":"Natural crag","tags":[]}},{"type":"Feature","geometry":{"type":"Point","coordinates":[-120.68118,47.58825]},"properties":{"id":"n11919017034","name":"Aquarius","country":"United States of America","countryCode":"US","region":null,"locality":null,"website":null,"badge":"Climbing spot","stat":"Sport climbing","tags":["Sport","Trad"]}},{"type":"Feature","geometry":{"type":"Point","coordinates":[-73.24884,44.48826]},"properties":{"id":"n5999226901","name":"Aquatic Redneck","country":"United States of America","countryCode":"US","region":null,"locality":null,"website":null,"badge":"Climbing spot","stat":"Sport climbing","tags":["Sport"]}},{"type":"Feature","geometry":{"type":"Point","coordinates":[-83.59772,37.82875]},"properties":{"id":"n7321846788","name":"Arachnid","country":"United States of America","countryCode":"US","region":null,"locality":null,"website":null,"badge":"Climbing spot","stat":"Sport climbing","tags":["Trad"]}},{"type":"Feature","geometry":{"type":"Point","coordinates":[-73.74316,44.14119]},"properties":{"id":"w1432081091","name":"Arachnid Traction","country":"United States of America","countryCode":"US","region":null,"locality":null,"website":null,"badge":"Climbing spot","stat":"Trad climbing","tags":["Trad"]}},{"type":"Feature","geometry":{"type":"Point","coordinates":[-83.72377,37.65267]},"properties":{"id":"n7200616689","name":"Arachnophobia","country":"United States of America","countryCode":"US","region":null,"locality":null,"website":null,"badge":"Climbing spot","stat":"Sport climbing","tags":["Sport"]}},{"type":"Feature","geometry":{"type":"Point","coordinates":[-74.18504,41.73893]},"properties":{"id":"n11933687252","name":"Arch","country":"United States of America","countryCode":"US","region":null,"locality":null,"website":null,"badge":"Climbing spot","stat":"Climbing area","tags":[]}},{"type":"Feature","geometry":{"type":"Point","coordinates":[-74.18507,41.73878]},"properties":{"id":"n12832779287","name":"Arch","country":"United States of America","countryCode":"US","region":null,"locality":null,"website":null,"badge":"Climbing spot","stat":"Sport climbing","tags":[]}},{"type":"Feature","geometry":{"type":"Point","coordinates":[-116.98085,34.66529]},"properties":{"id":"w647968059","name":"Arch Rock","country":"United States of America","countryCode":"US","region":null,"locality":null,"website":null,"badge":"Climbing spot","stat":"Climbing area","tags":[]}},{"type":"Feature","geometry":{"type":"Point","coordinates":[-83.72343,37.65218]},"properties":{"id":"n7193428992","name":"Archangel","country":"United States of America","countryCode":"US","region":null,"locality":null,"website":null,"badge":"Climbing spot","stat":"Sport climbing","tags":["Sport"]}},{"type":"Feature","geometry":{"type":"Point","coordinates":[-83.66736,37.84835]},"properties":{"id":"n7313037209","name":"Are the Pies Fresh?","country":"United States of America","countryCode":"US","region":null,"locality":null,"website":null,"badge":"Climbing spot","stat":"Sport climbing","tags":["Sport"]}},{"type":"Feature","geometry":{"type":"Point","coordinates":[-83.66732,37.84849]},"properties":{"id":"n7313037101","name":"Are the Pies Fresh? (first anchor)","country":"United States of America","countryCode":"US","region":null,"locality":null,"website":null,"badge":"Climbing spot","stat":"Sport climbing","tags":["Sport"]}},{"type":"Feature","geometry":{"type":"Point","coordinates":[-118.91176,37.78873]},"properties":{"id":"w1383886277","name":"Area 13 - Center","country":"United States of America","countryCode":"US","region":null,"locality":null,"website":null,"badge":"Climbing spot","stat":"Climbing area","tags":[]}},{"type":"Feature","geometry":{"type":"Point","coordinates":[-118.91217,37.78857]},"properties":{"id":"w1383886276","name":"Area 13 - Left Side","country":"United States of America","countryCode":"US","region":null,"locality":null,"website":null,"badge":"Climbing spot","stat":"Climbing area","tags":[]}},{"type":"Feature","geometry":{"type":"Point","coordinates":[-118.91155,37.78892]},"properties":{"id":"w1383886278","name":"Area 13 - Right Side","country":"United States of America","countryCode":"US","region":null,"locality":null,"website":null,"badge":"Climbing spot","stat":"Climbing area","tags":[]}},{"type":"Feature","geometry":{"type":"Point","coordinates":[-118.91143,37.78911]},"properties":{"id":"w1383886279","name":"Area 13 - Right tier","country":"United States of America","countryCode":"US","region":null,"locality":null,"website":null,"badge":"Climbing spot","stat":"Climbing area","tags":[]}},{"type":"Feature","geometry":{"type":"Point","coordinates":[-118.91079,37.78988]},"properties":{"id":"w1383886281","name":"Area 14","country":"United States of America","countryCode":"US","region":null,"locality":null,"website":null,"badge":"Climbing spot","stat":"Climbing area","tags":[]}},{"type":"Feature","geometry":{"type":"Point","coordinates":[-75.22245,40.48773]},"properties":{"id":"n3661075944","name":"Area 51","country":"United States of America","countryCode":"US","region":null,"locality":null,"website":null,"badge":"Climbing spot","stat":"Climbing area","tags":[]}},{"type":"Feature","geometry":{"type":"Point","coordinates":[-83.70624,37.64384]},"properties":{"id":"n7123582688","name":"Arete Headed Stranger","country":"United States of America","countryCode":"US","region":null,"locality":null,"website":null,"badge":"Climbing spot","stat":"Sport climbing","tags":["Sport"]}},{"type":"Feature","geometry":{"type":"Point","coordinates":[-116.17727,34.01057]},"properties":{"id":"w329070120","name":"Arid Piles","country":"United States of America","countryCode":"US","region":null,"locality":null,"website":null,"badge":"Climbing spot","stat":"Climbing area","tags":[]}},{"type":"Feature","geometry":{"type":"Point","coordinates":[-98.4841,29.43975]},"properties":{"id":"w638485687","name":"Armadillo Boulder","country":"United States of America","countryCode":"US","region":null,"locality":"San Antonio","website":"https://armadilloboulders.com/","badge":"Climbing spot","stat":"Bouldering","tags":["Boulder","Indoor"]}},{"type":"Feature","geometry":{"type":"Point","coordinates":[-118.67714,37.38398]},"properties":{"id":"w1383890662","name":"Armando's Stilletto / Rites of Spring","country":"United States of America","countryCode":"US","region":null,"locality":null,"website":null,"badge":"Climbing spot","stat":"Climbing area","tags":[]}},{"type":"Feature","geometry":{"type":"Point","coordinates":[-115.49328,36.1156]},"properties":{"id":"n11425914940","name":"Armatron","country":"United States of America","countryCode":"US","region":null,"locality":null,"website":null,"badge":"Climbing spot","stat":"Climbing area","tags":[]}},{"type":"Feature","geometry":{"type":"Point","coordinates":[-83.66836,37.81681]},"properties":{"id":"n7314110587","name":"Armed Forces","country":"United States of America","countryCode":"US","region":null,"locality":null,"website":null,"badge":"Climbing spot","stat":"Sport climbing","tags":["Trad"]}},{"type":"Feature","geometry":{"type":"Point","coordinates":[-74.16952,41.14628]},"properties":{"id":"n6366228631","name":"Armed Services Rampart","country":"United States of America","countryCode":"US","region":null,"locality":null,"website":null,"badge":"Climbing spot","stat":"Climbing area","tags":[]}},{"type":"Feature","geometry":{"type":"Point","coordinates":[-72.45726,42.56755]},"properties":{"id":"n10838401339","name":"Arrhythmia","country":"United States of America","countryCode":"US","region":null,"locality":null,"website":null,"badge":"Climbing spot","stat":"Sport climbing","tags":["Sport","Gneiss"]}},{"type":"Feature","geometry":{"type":"Point","coordinates":[-74.17959,41.74437]},"properties":{"id":"n11875610993","name":"Arrow","country":"United States of America","countryCode":"US","region":null,"locality":null,"website":null,"badge":"Climbing spot","stat":"Climbing area","tags":[]}},{"type":"Feature","geometry":{"type":"Point","coordinates":[-96.60924,33.8236]},"properties":{"id":"n2916969734","name":"Art Boulder","country":"United States of America","countryCode":"US","region":null,"locality":null,"website":null,"badge":"Climbing spot","stat":"Climbing area","tags":[]}},{"type":"Feature","geometry":{"type":"Point","coordinates":[-117.05058,32.82477]},"properties":{"id":"n11376530570","name":"Art of the Pissant","country":"United States of America","countryCode":"US","region":null,"locality":null,"website":null,"badge":"Climbing spot","stat":"Climbing area","tags":[]}},{"type":"Feature","geometry":{"type":"Point","coordinates":[-83.57771,37.81893]},"properties":{"id":"n7414714297","name":"As Luck Would Have It","country":"United States of America","countryCode":"US","region":null,"locality":null,"website":null,"badge":"Climbing spot","stat":"Sport climbing","tags":["Trad"]}},{"type":"Feature","geometry":{"type":"Point","coordinates":[-117.05086,32.82546]},"properties":{"id":"n11376359025","name":"As the Crow Flies","country":"United States of America","countryCode":"US","region":null,"locality":null,"website":null,"badge":"Climbing spot","stat":"Climbing area","tags":[]}},{"type":"Feature","geometry":{"type":"Point","coordinates":[-72.52638,42.38493]},"properties":{"id":"n12569496623","name":"ASCEND","country":"United States of America","countryCode":"US","region":null,"locality":null,"website":"https://www.umass.edu/recwell/climbing","badge":"Climbing spot","stat":"Indoor climbing gym","tags":["Indoor"]}},{"type":"Feature","geometry":{"type":"Point","coordinates":[-79.89587,40.45071]},"properties":{"id":"w533654915","name":"ASCEND","country":"United States of America","countryCode":"US","region":"PA","locality":"Pittsburgh","website":null,"badge":"Climbing spot","stat":"Indoor climbing gym","tags":["Indoor"]}},{"type":"Feature","geometry":{"type":"Point","coordinates":[-80.67365,40.98743]},"properties":{"id":"w1233940677","name":"ASCEND Youngstown","country":"United States of America","countryCode":"US","region":"OH","locality":"Youngstown","website":null,"badge":"Climbing spot","stat":"Indoor climbing gym","tags":["Indoor"]}},{"type":"Feature","geometry":{"type":"Point","coordinates":[-72.90526,41.31558]},"properties":{"id":"n11667621941","name":"Ascent Climbing Gym","country":"United States of America","countryCode":"US","region":null,"locality":null,"website":"https://ascentclimbinggym.com/","badge":"Climbing spot","stat":"Indoor climbing gym","tags":["Indoor"]}},{"type":"Feature","geometry":{"type":"Point","coordinates":[-83.6299,37.71802]},"properties":{"id":"w1341148984","name":"Ash Branch","country":"United States of America","countryCode":"US","region":null,"locality":null,"website":null,"badge":"Climbing spot","stat":"Natural crag","tags":[]}},{"type":"Feature","geometry":{"type":"Point","coordinates":[-122.72569,42.18998]},"properties":{"id":"w568603197","name":"Ashland Boulders (Acid Castle)","country":"United States of America","countryCode":"US","region":null,"locality":null,"website":"https://rockclimbing.com/routes/North_America/United_States/Oregon/Southern_Oregon/Ashland_Boulders__Acid_Castle_/","badge":"Climbing spot","stat":"Bouldering","tags":[]}},{"type":"Feature","geometry":{"type":"Point","coordinates":[-116.17835,34.01579]},"properties":{"id":"w1369184960","name":"Assembly Boulder","country":"United States of America","countryCode":"US","region":null,"locality":null,"website":null,"badge":"Climbing spot","stat":"Climbing area","tags":[]}},{"type":"Feature","geometry":{"type":"Point","coordinates":[-105.39307,39.51589]},"properties":{"id":"n13146274660","name":"Astronomy Wall","country":"United States of America","countryCode":"US","region":null,"locality":null,"website":null,"badge":"Climbing spot","stat":"Climbing area","tags":[]}},{"type":"Feature","geometry":{"type":"Point","coordinates":[-71.8442,43.80525]},"properties":{"id":"w621249764","name":"Asylum","country":"United States of America","countryCode":"US","region":null,"locality":null,"website":null,"badge":"Climbing spot","stat":"Natural crag","tags":[]}},{"type":"Feature","geometry":{"type":"Point","coordinates":[-83.6997,37.8468]},"properties":{"id":"n13206886834","name":"Asylum Wall","country":"United States of America","countryCode":"US","region":null,"locality":null,"website":null,"badge":"Climbing spot","stat":"Climbing area","tags":[]}},{"type":"Feature","geometry":{"type":"Point","coordinates":[-111.07729,33.30493]},"properties":{"id":"w1317804876","name":"Atlantis","country":"United States of America","countryCode":"US","region":null,"locality":null,"website":"https://www.mountainproject.com/area/105792118/atlantis","badge":"Climbing spot","stat":"Climbing area","tags":[]}},{"type":"Feature","geometry":{"type":"Point","coordinates":[-83.73588,37.6733]},"properties":{"id":"n7212627885","name":"ATM","country":"United States of America","countryCode":"US","region":null,"locality":null,"website":null,"badge":"Climbing spot","stat":"Sport climbing","tags":[]}},{"type":"Feature","geometry":{"type":"Point","coordinates":[-115.42683,36.16792]},"properties":{"id":"n4557975598","name":"Atman","country":"United States of America","countryCode":"US","region":null,"locality":null,"website":null,"badge":"Climbing spot","stat":"Sport climbing","tags":["Trad"]}},{"type":"Feature","geometry":{"type":"Point","coordinates":[-83.71069,37.64916]},"properties":{"id":"n7192331400","name":"Atomic Fireballs","country":"United States of America","countryCode":"US","region":null,"locality":null,"website":null,"badge":"Climbing spot","stat":"Sport climbing","tags":["Sport"]}},{"type":"Feature","geometry":{"type":"Point","coordinates":[-118.57035,37.51324]},"properties":{"id":"w1383882829","name":"Attila the Hun Wall","country":"United States of America","countryCode":"US","region":null,"locality":null,"website":null,"badge":"Climbing spot","stat":"Climbing area","tags":[]}},{"type":"Feature","geometry":{"type":"Point","coordinates":[-121.01465,38.91579]},"properties":{"id":"n4240926472","name":"Auburn Quarry Climbing Area","country":"United States of America","countryCode":"US","region":null,"locality":null,"website":"https://www.mountainproject.com/area/105733941/cave-valley-aka-auburn-quarry","badge":"Climbing spot","stat":"Sport climbing","tags":["Sport","Trad"]}},{"type":"Feature","geometry":{"type":"Point","coordinates":[-83.71021,37.65185]},"properties":{"id":"n7203497485","name":"Audie","country":"United States of America","countryCode":"US","region":null,"locality":null,"website":null,"badge":"Climbing spot","stat":"Sport climbing","tags":["Sport"]}},{"type":"Feature","geometry":{"type":"Point","coordinates":[-83.71344,37.64904]},"properties":{"id":"n7192331386","name":"Augustus Gloop","country":"United States of America","countryCode":"US","region":null,"locality":null,"website":null,"badge":"Climbing spot","stat":"Sport climbing","tags":["Sport"]}},{"type":"Feature","geometry":{"type":"Point","coordinates":[-83.67498,37.64938]},"properties":{"id":"n11953807372","name":"Aurthur King Of The Britons","country":"United States of America","countryCode":"US","region":null,"locality":null,"website":null,"badge":"Climbing spot","stat":"Sport climbing","tags":["Sport"]}},{"type":"Feature","geometry":{"type":"Point","coordinates":[-97.79928,30.23086]},"properties":{"id":"n9645875684","name":"Austin Bouldering Project Westgate","country":"United States of America","countryCode":"US","region":"TX","locality":"Austin","website":null,"badge":"Climbing spot","stat":"Indoor climbing gym","tags":["Indoor"]}},{"type":"Feature","geometry":{"type":"Point","coordinates":[-83.71536,37.65302]},"properties":{"id":"n7209456290","name":"Autograph","country":"United States of America","countryCode":"US","region":null,"locality":null,"website":null,"badge":"Climbing spot","stat":"Sport climbing","tags":["Sport"]}},{"type":"Feature","geometry":{"type":"Point","coordinates":[-71.65864,43.9926]},"properties":{"id":"w1010781887","name":"Autum Wall","country":"United States of America","countryCode":"US","region":null,"locality":null,"website":null,"badge":"Climbing spot","stat":"Natural crag","tags":[]}},{"type":"Feature","geometry":{"type":"Point","coordinates":[-83.66917,37.84787]},"properties":{"id":"n7313037393","name":"Autumn","country":"United States of America","countryCode":"US","region":null,"locality":null,"website":null,"badge":"Climbing spot","stat":"Sport climbing","tags":["Trad"]}},{"type":"Feature","geometry":{"type":"Point","coordinates":[-83.71884,37.65151]},"properties":{"id":"n7192354786","name":"Avalanche Run","country":"United States of America","countryCode":"US","region":null,"locality":null,"website":null,"badge":"Climbing spot","stat":"Sport climbing","tags":["Sport"]}},{"type":"Feature","geometry":{"type":"Point","coordinates":[-83.72122,37.64409]},"properties":{"id":"n7188231192","name":"Avast Ye (WIP)","country":"United States of America","countryCode":"US","region":null,"locality":null,"website":null,"badge":"Climbing spot","stat":"Sport climbing","tags":["Sport"]}},{"type":"Feature","geometry":{"type":"Point","coordinates":[-96.10323,36.12146]},"properties":{"id":"n8150213496","name":"Avery Drive","country":"United States of America","countryCode":"US","region":null,"locality":null,"website":null,"badge":"Climbing spot","stat":"Climbing area","tags":[]}},{"type":"Feature","geometry":{"type":"Point","coordinates":[-121.75484,47.49679]},"properties":{"id":"n9421939279","name":"AWOL","country":"United States of America","countryCode":"US","region":null,"locality":null,"website":null,"badge":"Climbing spot","stat":"Climbing area","tags":[]}},{"type":"Feature","geometry":{"type":"Point","coordinates":[-71.5699,42.57086]},"properties":{"id":"r15656558","name":"Ayer Climbing","country":"United States of America","countryCode":"US","region":null,"locality":null,"website":null,"badge":"Climbing spot","stat":"Climbing area","tags":[]}},{"type":"Feature","geometry":{"type":"Point","coordinates":[-71.56885,42.57046]},"properties":{"id":"n10059522286","name":"Ayery Cracks Boulder","country":"United States of America","countryCode":"US","region":null,"locality":null,"website":null,"badge":"Climbing spot","stat":"Bouldering","tags":[]}},{"type":"Feature","geometry":{"type":"Point","coordinates":[-83.66709,37.84864]},"properties":{"id":"n7313037207","name":"B3","country":"United States of America","countryCode":"US","region":null,"locality":null,"website":null,"badge":"Climbing spot","stat":"Sport climbing","tags":["Trad"]}},{"type":"Feature","geometry":{"type":"Point","coordinates":[-83.71188,37.6491]},"properties":{"id":"n7192331528","name":"Babinski Sign","country":"United States of America","countryCode":"US","region":null,"locality":null,"website":null,"badge":"Climbing spot","stat":"Sport climbing","tags":["Sport"]}},{"type":"Feature","geometry":{"type":"Point","coordinates":[-83.72093,37.65183]},"properties":{"id":"n7193214794","name":"Baby Blue Eyes","country":"United States of America","countryCode":"US","region":null,"locality":null,"website":null,"badge":"Climbing spot","stat":"Sport climbing","tags":["Sport"]}},{"type":"Feature","geometry":{"type":"Point","coordinates":[-119.60299,37.7431]},"properties":{"id":"w1060590132","name":"Bachar Cracker Boulder","country":"United States of America","countryCode":"US","region":null,"locality":null,"website":null,"badge":"Climbing spot","stat":"Bouldering","tags":["Granite"]}},{"type":"Feature","geometry":{"type":"Point","coordinates":[-83.66719,37.84858]},"properties":{"id":"n7313037208","name":"Back Door to Paris","country":"United States of America","countryCode":"US","region":null,"locality":null,"website":null,"badge":"Climbing spot","stat":"Sport climbing","tags":["Sport"]}},{"type":"Feature","geometry":{"type":"Point","coordinates":[-105.23788,38.62012]},"properties":{"id":"n4587982696","name":"Back for More","country":"United States of America","countryCode":"US","region":null,"locality":null,"website":"https://www.mountainproject.com/v/back-for-more/108290668","badge":"Climbing spot","stat":"Sport climbing","tags":["Sport","Limestone"]}},{"type":"Feature","geometry":{"type":"Point","coordinates":[-89.8512,33.78567]},"properties":{"id":"n13165985685","name":"Back Forty","country":"United States of America","countryCode":"US","region":"MS","locality":"Grenada","website":"https://backfortyoutdoors.com/","badge":"Climbing spot","stat":"Climbing area","tags":[]}},{"type":"Feature","geometry":{"type":"Point","coordinates":[-83.7071,37.65295]},"properties":{"id":"n7207348287","name":"Back in the Days of Bold","country":"United States of America","countryCode":"US","region":null,"locality":null,"website":null,"badge":"Climbing spot","stat":"Sport climbing","tags":["Trad"]}},{"type":"Feature","geometry":{"type":"Point","coordinates":[-90.09855,43.05123]},"properties":{"id":"n6718390953","name":"Backbone Ridge","country":"United States of America","countryCode":"US","region":null,"locality":null,"website":null,"badge":"Climbing spot","stat":"Climbing area","tags":[]}},{"type":"Feature","geometry":{"type":"Point","coordinates":[-83.64212,37.88831]},"properties":{"id":"n13204853073","name":"Backside","country":"United States of America","countryCode":"US","region":null,"locality":null,"website":null,"badge":"Climbing spot","stat":"Sport climbing","tags":["Sport","Trad"]}},{"type":"Feature","geometry":{"type":"Point","coordinates":[-98.02735,32.82082]},"properties":{"id":"n13655203190","name":"Backside of Main Canyon","country":"United States of America","countryCode":"US","region":null,"locality":null,"website":null,"badge":"Climbing spot","stat":"Climbing area","tags":[]}},{"type":"Feature","geometry":{"type":"Point","coordinates":[-113.67594,42.12673]},"properties":{"id":"r12264648","name":"Backyard Boulders","country":"United States of America","countryCode":"US","region":null,"locality":null,"website":null,"badge":"Climbing spot","stat":"Climbing area","tags":[]}},{"type":"Feature","geometry":{"type":"Point","coordinates":[-121.02804,43.99162]},"properties":{"id":"n3507236276","name":"Badlands Rock","country":"United States of America","countryCode":"US","region":null,"locality":null,"website":null,"badge":"Climbing spot","stat":"Climbing area","tags":[]}},{"type":"Feature","geometry":{"type":"Point","coordinates":[-83.71428,37.65358]},"properties":{"id":"n7208767885","name":"Balance Beam","country":"United States of America","countryCode":"US","region":null,"locality":null,"website":null,"badge":"Climbing spot","stat":"Sport climbing","tags":["Sport"]}},{"type":"Feature","geometry":{"type":"Point","coordinates":[-89.72507,43.41429]},"properties":{"id":"n6725292553","name":"Balanced Rock Wall","country":"United States of America","countryCode":"US","region":null,"locality":null,"website":null,"badge":"Climbing spot","stat":"Climbing area","tags":[]}},{"type":"Feature","geometry":{"type":"Point","coordinates":[-122.0948,37.22812]},"properties":{"id":"n11026328624","name":"Balancing Rock","country":"United States of America","countryCode":"US","region":null,"locality":null,"website":null,"badge":"Climbing spot","stat":"Bouldering","tags":["Sandstone"]}},{"type":"Feature","geometry":{"type":"Point","coordinates":[-71.65776,43.9922]},"properties":{"id":"w1010781878","name":"Balcony","country":"United States of America","countryCode":"US","region":null,"locality":null,"website":null,"badge":"Climbing spot","stat":"Natural crag","tags":[]}},{"type":"Feature","geometry":{"type":"Point","coordinates":[-71.98486,44.76238]},"properties":{"id":"n7833620959","name":"Bald Hill","country":"United States of America","countryCode":"US","region":null,"locality":null,"website":null,"badge":"Climbing spot","stat":"Indoor climbing gym","tags":["Indoor"]}},{"type":"Feature","geometry":{"type":"Point","coordinates":[-83.7114,37.64609]},"properties":{"id":"n7127203385","name":"Ball Scratcher","country":"United States of America","countryCode":"US","region":null,"locality":null,"website":null,"badge":"Climbing spot","stat":"Sport climbing","tags":["Sport"]}},{"type":"Feature","geometry":{"type":"Point","coordinates":[-68.18897,44.34736]},"properties":{"id":"w1408901941","name":"Ballance Queen","country":"United States of America","countryCode":"US","region":null,"locality":null,"website":null,"badge":"Climbing spot","stat":"Trad climbing","tags":["Trad","Granite"]}},{"type":"Feature","geometry":{"type":"Point","coordinates":[-83.71405,37.64975]},"properties":{"id":"n7192331290","name":"Ballnuts and Brassies or Busted Ankles;One Side Makes You Taller","country":"United States of America","countryCode":"US","region":null,"locality":null,"website":null,"badge":"Climbing spot","stat":"Sport climbing","tags":["Sport","Trad"]}},{"type":"Feature","geometry":{"type":"Point","coordinates":[-77.42192,38.77676]},"properties":{"id":"n8258975748","name":"Balmoral Rope Swing","country":"United States of America","countryCode":"US","region":null,"locality":null,"website":null,"badge":"Climbing spot","stat":"Indoor climbing gym","tags":["Indoor"]}},{"type":"Feature","geometry":{"type":"Point","coordinates":[-120.78539,47.57059]},"properties":{"id":"n12105584248","name":"Bambino","country":"United States of America","countryCode":"US","region":null,"locality":null,"website":null,"badge":"Climbing spot","stat":"Natural crag","tags":[]}},{"type":"Feature","geometry":{"type":"Point","coordinates":[-120.76714,47.55571]},"properties":{"id":"n12848298310","name":"Bamboozle","country":"United States of America","countryCode":"US","region":null,"locality":null,"website":null,"badge":"Climbing spot","stat":"Sport climbing","tags":["Trad"]}},{"type":"Feature","geometry":{"type":"Point","coordinates":[-118.56968,37.51103]},"properties":{"id":"w1383882197","name":"Banana Belt","country":"United States of America","countryCode":"US","region":null,"locality":null,"website":null,"badge":"Climbing spot","stat":"Climbing area","tags":[]}},{"type":"Feature","geometry":{"type":"Point","coordinates":[-73.73998,44.14499]},"properties":{"id":"r19335414","name":"Banana Belt","country":"United States of America","countryCode":"US","region":null,"locality":null,"website":null,"badge":"Climbing spot","stat":"Climbing area","tags":[]}},{"type":"Feature","geometry":{"type":"Point","coordinates":[-116.17942,34.01216]},"properties":{"id":"w1369180496","name":"Bandulo Block","country":"United States of America","countryCode":"US","region":null,"locality":null,"website":null,"badge":"Climbing spot","stat":"Climbing area","tags":[]}},{"type":"Feature","geometry":{"type":"Point","coordinates":[-83.73279,37.67661]},"properties":{"id":"n7215443492","name":"Banjolero","country":"United States of America","countryCode":"US","region":null,"locality":null,"website":null,"badge":"Climbing spot","stat":"Sport climbing","tags":["Sport"]}},{"type":"Feature","geometry":{"type":"Point","coordinates":[-105.22998,38.63342]},"properties":{"id":"w264954413","name":"Bank North","country":"United States of America","countryCode":"US","region":null,"locality":null,"website":null,"badge":"Climbing spot","stat":"Natural crag","tags":[]}},{"type":"Feature","geometry":{"type":"Point","coordinates":[-83.71757,37.65307]},"properties":{"id":"n7211951704","name":"Banksy","country":"United States of America","countryCode":"US","region":null,"locality":null,"website":null,"badge":"Climbing spot","stat":"Sport climbing","tags":["Sport"]}},{"type":"Feature","geometry":{"type":"Point","coordinates":[-83.7092,37.65203]},"properties":{"id":"n7206931587","name":"Barbed Wire","country":"United States of America","countryCode":"US","region":null,"locality":null,"website":null,"badge":"Climbing spot","stat":"Sport climbing","tags":["Sport"]}},{"type":"Feature","geometry":{"type":"Point","coordinates":[-71.16621,44.0615]},"properties":{"id":"w1174676664","name":"Barber Wall","country":"United States of America","countryCode":"US","region":null,"locality":null,"website":null,"badge":"Climbing spot","stat":"Natural crag","tags":[]}},{"type":"Feature","geometry":{"type":"Point","coordinates":[-118.67787,37.38208]},"properties":{"id":"w1383890671","name":"Barbershop Buttress","country":"United States of America","countryCode":"US","region":null,"locality":null,"website":null,"badge":"Climbing spot","stat":"Climbing area","tags":[]}},{"type":"Feature","geometry":{"type":"Point","coordinates":[-72.29426,43.97478]},"properties":{"id":"n13142997766","name":"Bare Arret","country":"United States of America","countryCode":"US","region":null,"locality":null,"website":null,"badge":"Climbing spot","stat":"Sport climbing","tags":["Trad"]}},{"type":"Feature","geometry":{"type":"Point","coordinates":[-83.71506,37.64988]},"properties":{"id":"n7192331494","name":"Bareback","country":"United States of America","countryCode":"US","region":null,"locality":null,"website":null,"badge":"Climbing spot","stat":"Sport climbing","tags":["Sport"]}},{"type":"Feature","geometry":{"type":"Point","coordinates":[-83.73751,37.67876]},"properties":{"id":"n7269712588","name":"Barn Dance","country":"United States of America","countryCode":"US","region":null,"locality":null,"website":null,"badge":"Climbing spot","stat":"Sport climbing","tags":["Sport"]}},{"type":"Feature","geometry":{"type":"Point","coordinates":[-121.98563,37.88]},"properties":{"id":"w527189097","name":"Barney Rubble","country":"United States of America","countryCode":"US","region":null,"locality":null,"website":null,"badge":"Climbing spot","stat":"Climbing area","tags":[]}},{"type":"Feature","geometry":{"type":"Point","coordinates":[-120.73565,47.54326]},"properties":{"id":"n12641693217","name":"Barney's Rubble","country":"United States of America","countryCode":"US","region":null,"locality":null,"website":null,"badge":"Climbing spot","stat":"Climbing area","tags":[]}},{"type":"Feature","geometry":{"type":"Point","coordinates":[-110.69689,32.40104]},"properties":{"id":"n13812370289","name":"Barnum Rock","country":"United States of America","countryCode":"US","region":null,"locality":null,"website":null,"badge":"Climbing spot","stat":"Sport climbing","tags":["Sport","Trad"]}},{"type":"Feature","geometry":{"type":"Point","coordinates":[-116.171,34.01641]},"properties":{"id":"w1370342009","name":"Barrel of Monkeys","country":"United States of America","countryCode":"US","region":null,"locality":null,"website":null,"badge":"Climbing spot","stat":"Climbing area","tags":[]}},{"type":"Feature","geometry":{"type":"Point","coordinates":[-90.11122,43.03436]},"properties":{"id":"n6839073998","name":"Barrel Ridge","country":"United States of America","countryCode":"US","region":null,"locality":null,"website":null,"badge":"Climbing spot","stat":"Bouldering","tags":["Boulder"]}},{"type":"Feature","geometry":{"type":"Point","coordinates":[-83.7077,37.6445]},"properties":{"id":"n7123582489","name":"Barren Gold","country":"United States of America","countryCode":"US","region":null,"locality":null,"website":null,"badge":"Climbing spot","stat":"Sport climbing","tags":["Sport"]}},{"type":"Feature","geometry":{"type":"Point","coordinates":[-107.67171,38.0215]},"properties":{"id":"n7164864276","name":"Basecamp","country":"United States of America","countryCode":"US","region":null,"locality":null,"website":null,"badge":"Climbing spot","stat":"Climbing area","tags":[]}},{"type":"Feature","geometry":{"type":"Point","coordinates":[-119.81408,39.52801]},"properties":{"id":"n12249022539","name":"BaseCamp Climbing Gym","country":"United States of America","countryCode":"US","region":null,"locality":null,"website":null,"badge":"Climbing spot","stat":"Indoor climbing gym","tags":["Indoor"]}},{"type":"Feature","geometry":{"type":"Point","coordinates":[-74.16788,41.1459]},"properties":{"id":"w679966630","name":"Basilisk","country":"United States of America","countryCode":"US","region":null,"locality":null,"website":null,"badge":"Climbing spot","stat":"Natural crag","tags":[]}},{"type":"Feature","geometry":{"type":"Point","coordinates":[-97.17984,31.46647]},"properties":{"id":"n13317971740","name":"Basin Climbing and Fitness","country":"United States of America","countryCode":"US","region":"TX","locality":"Hewitt","website":"https://www.basinclimbing.com/","badge":"Climbing spot","stat":"Indoor climbing gym","tags":["Indoor"]}},{"type":"Feature","geometry":{"type":"Point","coordinates":[-116.20185,34.03409]},"properties":{"id":"r19691822","name":"Baskerville Boulders","country":"United States of America","countryCode":"US","region":null,"locality":null,"website":null,"badge":"Climbing spot","stat":"Bouldering","tags":["Boulder"]}},{"type":"Feature","geometry":{"type":"Point","coordinates":[-116.20163,34.03373]},"properties":{"id":"r19691821","name":"Baskerville Rock","country":"United States of America","countryCode":"US","region":null,"locality":null,"website":null,"badge":"Climbing spot","stat":"Climbing area","tags":[]}},{"type":"Feature","geometry":{"type":"Point","coordinates":[-105.23783,38.62007]},"properties":{"id":"n4587982690","name":"Bat Crack","country":"United States of America","countryCode":"US","region":null,"locality":null,"website":"https://www.mountainproject.com/v/bat-crack/105756616","badge":"Climbing spot","stat":"Sport climbing","tags":["Sport","Limestone"]}},{"type":"Feature","geometry":{"type":"Point","coordinates":[-72.85874,44.37095]},"properties":{"id":"w1230700363","name":"Bat Wall","country":"United States of America","countryCode":"US","region":null,"locality":null,"website":null,"badge":"Climbing spot","stat":"Natural crag","tags":[]}},{"type":"Feature","geometry":{"type":"Point","coordinates":[-72.85874,44.37095]},"properties":{"id":"r19335162","name":"Bat Wall","country":"United States of America","countryCode":"US","region":null,"locality":null,"website":null,"badge":"Climbing spot","stat":"Climbing area","tags":[]}},{"type":"Feature","geometry":{"type":"Point","coordinates":[-83.71205,37.64923]},"properties":{"id":"n7192331404","name":"Bathed in Light","country":"United States of America","countryCode":"US","region":null,"locality":null,"website":null,"badge":"Climbing spot","stat":"Sport climbing","tags":["Sport"]}},{"type":"Feature","geometry":{"type":"Point","coordinates":[-105.53003,40.40555]},"properties":{"id":"w128156600","name":"Batman Pinnacle","country":"United States of America","countryCode":"US","region":null,"locality":null,"website":null,"badge":"Climbing spot","stat":"Climbing area","tags":[]}},{"type":"Feature","geometry":{"type":"Point","coordinates":[-105.52949,40.40618]},"properties":{"id":"w128156601","name":"Batman Rock","country":"United States of America","countryCode":"US","region":null,"locality":null,"website":null,"badge":"Climbing spot","stat":"Climbing area","tags":[]}},{"type":"Feature","geometry":{"type":"Point","coordinates":[-83.72231,37.64413]},"properties":{"id":"n7188231197","name":"Batten Down the Hatches","country":"United States of America","countryCode":"US","region":null,"locality":null,"website":null,"badge":"Climbing spot","stat":"Sport climbing","tags":["Sport"]}},{"type":"Feature","geometry":{"type":"Point","coordinates":[-83.72223,37.64409]},"properties":{"id":"n7188231290","name":"Batten Down the Hatches","country":"United States of America","countryCode":"US","region":null,"locality":null,"website":null,"badge":"Climbing spot","stat":"Sport climbing","tags":["Sport"]}},{"type":"Feature","geometry":{"type":"Point","coordinates":[-116.97131,33.01062]},"properties":{"id":"n13461578954","name":"Battle of Urushiol","country":"United States of America","countryCode":"US","region":null,"locality":null,"website":"https://www.mountainproject.com/route/126510376","badge":"Climbing spot","stat":"Sport climbing","tags":["Trad"]}},{"type":"Feature","geometry":{"type":"Point","coordinates":[-75.82347,40.25099]},"properties":{"id":"n13164394629","name":"Battling T-Rex","country":"United States of America","countryCode":"US","region":null,"locality":null,"website":null,"badge":"Climbing spot","stat":"Sport climbing","tags":["Sport"]}},{"type":"Feature","geometry":{"type":"Point","coordinates":[-118.67656,37.38441]},"properties":{"id":"w1383890668","name":"Bavarian Wall and The Far Side","country":"United States of America","countryCode":"US","region":null,"locality":null,"website":null,"badge":"Climbing spot","stat":"Climbing area","tags":[]}},{"type":"Feature","geometry":{"type":"Point","coordinates":[-74.21487,41.73961]},"properties":{"id":"n2443280250","name":"Bay of Pigs","country":"United States of America","countryCode":"US","region":null,"locality":null,"website":null,"badge":"Climbing spot","stat":"Sport climbing","tags":[]}},{"type":"Feature","geometry":{"type":"Point","coordinates":[-117.00264,34.67116]},"properties":{"id":"w648631240","name":"BC Corridor 2T+1S","country":"United States of America","countryCode":"US","region":null,"locality":null,"website":null,"badge":"Climbing spot","stat":"Climbing area","tags":[]}},{"type":"Feature","geometry":{"type":"Point","coordinates":[-83.72102,37.65173]},"properties":{"id":"n7193214688","name":"Be My Yoko Ono","country":"United States of America","countryCode":"US","region":null,"locality":null,"website":null,"badge":"Climbing spot","stat":"Sport climbing","tags":["Trad"]}},{"type":"Feature","geometry":{"type":"Point","coordinates":[-117.16325,33.84302]},"properties":{"id":"w1456947365","name":"Beach Boulders (aka The Mystic Boulders)","country":"United States of America","countryCode":"US","region":null,"locality":null,"website":"https://www.mountainproject.com/area/108343519/beach-boulders-aka-the-mystic-boulders","badge":"Climbing spot","stat":"Climbing area","tags":[]}},{"type":"Feature","geometry":{"type":"Point","coordinates":[-83.71821,37.64554]},"properties":{"id":"n7118515489","name":"Beach Cruiser","country":"United States of America","countryCode":"US","region":null,"locality":null,"website":null,"badge":"Climbing spot","stat":"Sport climbing","tags":["Trad"]}},{"type":"Feature","geometry":{"type":"Point","coordinates":[-111.77516,41.74284]},"properties":{"id":"n13806128315","name":"Beach Front","country":"United States of America","countryCode":"US","region":null,"locality":null,"website":null,"badge":"Climbing spot","stat":"Climbing area","tags":[]}},{"type":"Feature","geometry":{"type":"Point","coordinates":[-83.67155,37.8586]},"properties":{"id":"n7312986789","name":"Beachcomber","country":"United States of America","countryCode":"US","region":null,"locality":null,"website":null,"badge":"Climbing spot","stat":"Sport climbing","tags":[]}},{"type":"Feature","geometry":{"type":"Point","coordinates":[-71.17427,42.32274]},"properties":{"id":"w1162921172","name":"Beached Whale Boulder","country":"United States of America","countryCode":"US","region":null,"locality":null,"website":null,"badge":"Climbing spot","stat":"Bouldering","tags":["Puddingstone"]}},{"type":"Feature","geometry":{"type":"Point","coordinates":[-83.70589,37.64435]},"properties":{"id":"n7123582694","name":"Bear Belly","country":"United States of America","countryCode":"US","region":null,"locality":null,"website":null,"badge":"Climbing spot","stat":"Sport climbing","tags":["Sport"]}},{"type":"Feature","geometry":{"type":"Point","coordinates":[-71.4338,41.89587]},"properties":{"id":"w1267173532","name":"Bear Hug Boulder","country":"United States of America","countryCode":"US","region":null,"locality":null,"website":null,"badge":"Climbing spot","stat":"Bouldering","tags":["Boulder"]}},{"type":"Feature","geometry":{"type":"Point","coordinates":[-116.18108,34.05372]},"properties":{"id":"w338197945","name":"Bear Island","country":"United States of America","countryCode":"US","region":null,"locality":null,"website":null,"badge":"Climbing spot","stat":"Climbing area","tags":[]}},{"type":"Feature","geometry":{"type":"Point","coordinates":[-83.6614,37.8676]},"properties":{"id":"n13227755636","name":"Bear Wollor Hollor","country":"United States of America","countryCode":"US","region":null,"locality":null,"website":null,"badge":"Climbing spot","stat":"Climbing area","tags":[]}},{"type":"Feature","geometry":{"type":"Point","coordinates":[-120.13188,38.80283]},"properties":{"id":"w706285415","name":"Bear's Reach","country":"United States of America","countryCode":"US","region":null,"locality":null,"website":null,"badge":"Climbing spot","stat":"Climbing area","tags":[]}},{"type":"Feature","geometry":{"type":"Point","coordinates":[-74.16348,41.14602]},"properties":{"id":"n6371060241","name":"Beard Boulder","country":"United States of America","countryCode":"US","region":null,"locality":null,"website":null,"badge":"Climbing spot","stat":"Climbing area","tags":[]}},{"type":"Feature","geometry":{"type":"Point","coordinates":[-119.41538,37.88091]},"properties":{"id":"n5097050636","name":"Bearded Clam","country":"United States of America","countryCode":"US","region":null,"locality":null,"website":null,"badge":"Climbing spot","stat":"Climbing area","tags":[]}},{"type":"Feature","geometry":{"type":"Point","coordinates":[-120.64392,47.59875]},"properties":{"id":"n13707072794","name":"beargrass","country":"United States of America","countryCode":"US","region":"WA","locality":"Leavenworth","website":"https://www.beargrass.com/","badge":"Climbing spot","stat":"Indoor climbing gym","tags":["Indoor"]}},{"type":"Feature","geometry":{"type":"Point","coordinates":[-83.70711,37.64357]},"properties":{"id":"n7123582787","name":"Bearly Legal","country":"United States of America","countryCode":"US","region":null,"locality":null,"website":null,"badge":"Climbing spot","stat":"Sport climbing","tags":["Trad"]}},{"type":"Feature","geometry":{"type":"Point","coordinates":[-83.70602,37.64383]},"properties":{"id":"n7123582486","name":"Bearly There","country":"United States of America","countryCode":"US","region":null,"locality":null,"website":null,"badge":"Climbing spot","stat":"Sport climbing","tags":["Sport"]}},{"type":"Feature","geometry":{"type":"Point","coordinates":[-105.61605,40.57696]},"properties":{"id":"w1242359000","name":"Beaver Falls Bouldering","country":"United States of America","countryCode":"US","region":null,"locality":null,"website":null,"badge":"Climbing spot","stat":"Bouldering","tags":["Boulder"]}},